[
    {
      "city": "Delhi",
      "locality": "NCR Sarita Vihar",
      "locality_id": "ZWL005764",
      "latitude": 28.531759,
      "longitude": 77.293973
    },
    {
      "city": "Delhi",
      "locality": "NCR Faridabad Sector 41-50",
      "locality_id": "ZWL008752",
      "latitude": 28.460895,
      "longitude": 77.304764
    },
    {
      "city": "Delhi",
      "locality": "NCR New Friends Colony",
      "locality_id": "ZWL005996",
      "latitude": 28.565268,
      "longitude": 77.274971
    },
    {
      "city": "Delhi",
      "locality": "NCR Sector 26 (Noida)",
      "locality_id": "ZWL005243",
      "latitude": 28.574404,
      "longitude": 77.334178
    },
    {
      "city": "Delhi",
      "locality": "NCR New Industrial Town",
      "locality_id": "ZWL009032",
      "latitude": 28.375702,
      "longitude": 77.299442
    },
    {
      "city": "Delhi",
      "locality": "NCR Tilak Nagar",
      "locality_id": "ZWL005428",
      "latitude": 28.641372,
      "longitude": 77.094689
    },
    {
      "city": "Delhi",
      "locality": "NCR Sector 10, Gurgaon",
      "locality_id": "ZWL001073",
      "latitude": 28.436077,
      "longitude": 76.996757
    },
    {
      "city": "Delhi",
      "locality": "NCR Ashok Vihar, Delhi",
      "locality_id": "ZWL001319",
      "latitude": 28.684453,
      "longitude": 77.174418
    },
    {
      "city": "Delhi",
      "locality": "NCR Kalkaji",
      "locality_id": "ZWL004800",
      "latitude": 28.529029,
      "longitude": 77.258939
    },
    {
      "city": "Delhi",
      "locality": "NCR Sector 53",
      "locality_id": "ZWL003118",
      "latitude": 28.442743,
      "longitude": 77.104379
    },
    {
      "city": "Delhi",
      "locality": "NCR Sector 49",
      "locality_id": "ZWL002091",
      "latitude": 28.408012,
      "longitude": 77.050064
    },
    {
      "city": "Delhi",
      "locality": "NCR Vasundhara",
      "locality_id": "ZWL002662",
      "latitude": 28.665225,
      "longitude": 77.366782
    },
    {
      "city": "Delhi",
      "locality": "NCR Rajinder Nagar",
      "locality_id": "ZWL001404",
      "latitude": 28.640732,
      "longitude": 77.1829
    },
    {
      "city": "Delhi",
      "locality": "NCR Safdarjung Enclave",
      "locality_id": "ZWL008963",
      "latitude": 28.562608,
      "longitude": 77.191457
    },
    {
      "city": "Delhi",
      "locality": "NCR Connaught Place",
      "locality_id": "ZWL006538",
      "latitude": 28.63063,
      "longitude": 77.22064
    },
    {
      "city": "Delhi",
      "locality": "NCR Sector 66",
      "locality_id": "ZWL003075",
      "latitude": 28.380856,
      "longitude": 77.062751
    },
    {
      "city": "Delhi",
      "locality": "NCR Sector 57",
      "locality_id": "ZWL003721",
      "latitude": 28.4221,
      "longitude": 77.08274
    },
    {
      "city": "Delhi",
      "locality": "NCR Moti Bagh, Delhi",
      "locality_id": "ZWL006396",
      "latitude": 28.575774,
      "longitude": 77.180697
    },
    {
      "city": "Delhi",
      "locality": "NCR Patel Nagar, Delhi",
      "locality_id": "ZWL004535",
      "latitude": 28.652848,
      "longitude": 77.167909
    },
    {
      "city": "Delhi",
      "locality": "NCR Greater Noida",
      "locality_id": "ZWL008554",
      "latitude": 28.456171,
      "longitude": 77.521577
    },
    {
      "city": "Delhi",
      "locality": "NCR Karkardooma, Delhi",
      "locality_id": "ZWL004533",
      "latitude": 28.656829,
      "longitude": 77.310553
    },
    {
      "city": "Delhi",
      "locality": "NCR Tigaon",
      "locality_id": "ZWL002179",
      "latitude": 28.41712,
      "longitude": 77.412569
    },
    {
      "city": "Delhi",
      "locality": "NCR Sector 50 (Noida)",
      "locality_id": "ZWL007487",
      "latitude": 28.569103,
      "longitude": 77.364876
    },
    {
      "city": "Delhi",
      "locality": "NCR Vasant Kunj, Delhi",
      "locality_id": "ZWL007120",
      "latitude": 28.524633,
      "longitude": 77.151206
    },
    {
      "city": "Delhi",
      "locality": "NCR Dwarka, Delhi",
      "locality_id": "ZWL007486",
      "latitude": 28.594467,
      "longitude": 77.047747
    },
    {
      "city": "Delhi",
      "locality": "NCR Sector 15",
      "locality_id": "ZWL006287",
      "latitude": 28.457927,
      "longitude": 77.034816
    },
    {
      "city": "Delhi",
      "locality": "NCR Mayur Vihar Phase III",
      "locality_id": "ZWL002146",
      "latitude": 28.606,
      "longitude": 77.323675
    },
    {
      "city": "Delhi",
      "locality": "NCR Crossing Republik",
      "locality_id": "ZWL008405",
      "latitude": 28.635043,
      "longitude": 77.419056
    },
    {
      "city": "Delhi",
      "locality": "NCR Sector 28",
      "locality_id": "ZWL004455",
      "latitude": 28.473457,
      "longitude": 77.087532
    },
    {
      "city": "Delhi",
      "locality": "NCR Palam Vihar, Gurgaon",
      "locality_id": "ZWL005087",
      "latitude": 28.508782,
      "longitude": 77.033506
    },
    {
      "city": "Delhi",
      "locality": "NCR Sector 63 (Noida)",
      "locality_id": "ZWL009648",
      "latitude": 28.621672,
      "longitude": 77.386474
    },
    {
      "city": "Delhi",
      "locality": "NCR Raj Nagar, Ghaziabad",
      "locality_id": "ZWL008317",
      "latitude": 28.689174,
      "longitude": 77.428976
    },
    {
      "city": "Delhi",
      "locality": "NCR Sector 128",
      "locality_id": "ZWL005878",
      "latitude": 28.526706,
      "longitude": 77.354868
    },
    {
      "city": "Delhi",
      "locality": "NCR Sector 56, Gurgaon",
      "locality_id": "ZWL003241",
      "latitude": 28.418235,
      "longitude": 77.10186
    },
    {
      "city": "Delhi",
      "locality": "NCR Indirapuram",
      "locality_id": "ZWL007224",
      "latitude": 28.644059,
      "longitude": 77.373883
    },
    {
      "city": "Delhi",
      "locality": "NCR Malviya Nagar",
      "locality_id": "ZWL009834",
      "latitude": 28.536048,
      "longitude": 77.213453
    },
    {
      "city": "Delhi",
      "locality": "NCR Sector 43, Gurgaon",
      "locality_id": "ZWL007284",
      "latitude": 28.454416,
      "longitude": 77.08882
    },
    {
      "city": "Delhi",
      "locality": "NCR Sector 120 (Noida)",
      "locality_id": "ZWL006738",
      "latitude": 28.586854,
      "longitude": 77.390832
    },
    {
      "city": "Delhi",
      "locality": "NCR Saket",
      "locality_id": "ZWL007329",
      "latitude": 28.523171,
      "longitude": 77.207543
    },
    {
      "city": "Delhi",
      "locality": "NCR Sector 18 (Noida)",
      "locality_id": "ZWL001752",
      "latitude": 28.568937,
      "longitude": 77.324414
    },
    {
      "city": "Delhi",
      "locality": "NCR Naraina",
      "locality_id": "ZWL007594",
      "latitude": 28.627479,
      "longitude": 77.142115
    },
    {
      "city": "Delhi",
      "locality": "NCR Patparganj",
      "locality_id": "ZWL006116",
      "latitude": 28.632961,
      "longitude": 77.308344
    },
    {
      "city": "Delhi",
      "locality": "NCR Ghitorni",
      "locality_id": "ZWL009925",
      "latitude": 28.486412,
      "longitude": 77.125366
    },
    {
      "city": "Delhi",
      "locality": "NCR Faridabad Sector 1-11",
      "locality_id": "ZWL009335",
      "latitude": 28.365131,
      "longitude": 77.326157
    },
    {
      "city": "Delhi",
      "locality": "NCR Sector 24",
      "locality_id": "ZWL009638",
      "latitude": 28.497419,
      "longitude": 77.09098
    },
    {
      "city": "Delhi",
      "locality": "NCR Rajouri Garden",
      "locality_id": "ZWL005670",
      "latitude": 28.646438,
      "longitude": 77.122357
    },
    {
      "city": "Delhi",
      "locality": "NCR Vishnu Garden",
      "locality_id": "ZWL003757",
      "latitude": 28.646933,
      "longitude": 77.095064
    },
    {
      "city": "Delhi",
      "locality": "NCR Sector 48, Gurgaon",
      "locality_id": "ZWL003610",
      "latitude": 28.416008,
      "longitude": 77.032164
    },
    {
      "city": "Delhi",
      "locality": "NCR Kirti Nagar",
      "locality_id": "ZWL005971",
      "latitude": 28.654433,
      "longitude": 77.142367
    },
    {
      "city": "Delhi",
      "locality": "NCR Faridabad Sector 81-89",
      "locality_id": "ZWL003626",
      "latitude": 28.397247,
      "longitude": 77.345569
    },
    {
      "city": "Delhi",
      "locality": "NCR GK I",
      "locality_id": "ZWL005876",
      "latitude": 28.550911,
      "longitude": 77.235272
    },
    {
      "city": "Delhi",
      "locality": "NCR Mohan Estate",
      "locality_id": "ZWL006295",
      "latitude": 28.494788,
      "longitude": 77.312727
    },
    {
      "city": "Delhi",
      "locality": "NCR Mukherjee Nagar",
      "locality_id": "ZWL007653",
      "latitude": 28.702971,
      "longitude": 77.20974
    },
    {
      "city": "Delhi",
      "locality": "NCR Mehrauli",
      "locality_id": "ZWL006697",
      "latitude": 28.524426,
      "longitude": 77.183996
    },
    {
      "city": "Delhi",
      "locality": "NCR Burari",
      "locality_id": "ZWL003259",
      "latitude": 28.753669,
      "longitude": 77.191037
    },
    {
      "city": "Delhi",
      "locality": "NCR Gaur city, Ghaziabad",
      "locality_id": "ZWL004759",
      "latitude": 28.607703,
      "longitude": 77.434385
    },
    {
      "city": "Delhi",
      "locality": "NCR GK II",
      "locality_id": "ZWL004477",
      "latitude": 28.533936,
      "longitude": 77.2438
    },
    {
      "city": "Delhi",
      "locality": "NCR Rohini",
      "locality_id": "ZWL005077",
      "latitude": 28.723712,
      "longitude": 77.104596
    },
    {
      "city": "Delhi",
      "locality": "NCR Rangpuri",
      "locality_id": "ZWL008191",
      "latitude": 28.533976,
      "longitude": 77.119516
    },
    {
      "city": "Delhi",
      "locality": "NCR Sector 46",
      "locality_id": "ZWL006092",
      "latitude": 28.438586,
      "longitude": 77.060773
    },
    {
      "city": "Delhi",
      "locality": "NCR Sector 62 (Noida)",
      "locality_id": "ZWL001549",
      "latitude": 28.611088,
      "longitude": 77.369652
    },
    {
      "city": "Delhi",
      "locality": "NCR Shalimar Bagh",
      "locality_id": "ZWL001036",
      "latitude": 28.720312,
      "longitude": 77.164849
    },
    {
      "city": "Delhi",
      "locality": "NCR Model Town",
      "locality_id": "ZWL006996",
      "latitude": 28.717232,
      "longitude": 77.194643
    },
    {
      "city": "Delhi",
      "locality": "NCR Faridabad Sector 16-20",
      "locality_id": "ZWL007566",
      "latitude": 28.422437,
      "longitude": 77.310113
    },
    {
      "city": "Delhi",
      "locality": "NCR Sector 2 (Noida)",
      "locality_id": "ZWL009852",
      "latitude": 28.581459,
      "longitude": 77.31672
    },
    {
      "city": "Delhi",
      "locality": "NCR Govindpuram",
      "locality_id": "ZWL008648",
      "latitude": 28.689317,
      "longitude": 77.48693
    },
    {
      "city": "Delhi",
      "locality": "NCR Gwal Pahari",
      "locality_id": "ZWL009728",
      "latitude": 28.435122,
      "longitude": 77.136308
    },
    {
      "city": "Delhi",
      "locality": "NCR Nehru Nagar",
      "locality_id": "ZWL006868",
      "latitude": 28.653441,
      "longitude": 77.449969
    },
    {
      "city": "Delhi",
      "locality": "NCR Chittaranjan Park",
      "locality_id": "ZWL002067",
      "latitude": 28.53753,
      "longitude": 77.24907
    },
    {
      "city": "Delhi",
      "locality": "NCR IMT Manesar",
      "locality_id": "ZWL008791",
      "latitude": 28.384492,
      "longitude": 76.94195
    },
    {
      "city": "Delhi",
      "locality": "NCR Sector 73 Z Kitchen",
      "locality_id": "ZWL003043",
      "latitude": 28.580105,
      "longitude": 77.385436
    },
    {
      "city": "Delhi",
      "locality": "NCR Sector 51",
      "locality_id": "ZWL004159",
      "latitude": 28.430042,
      "longitude": 77.065213
    },
    {
      "city": "Delhi",
      "locality": "NCR Ballabhgarh",
      "locality_id": "ZWL005960",
      "latitude": 28.343049,
      "longitude": 77.330317
    },
    {
      "city": "Delhi",
      "locality": "NCR Nangloi",
      "locality_id": "ZWL009293",
      "latitude": 28.659524,
      "longitude": 77.0608
    },
    {
      "city": "Delhi",
      "locality": "NCR Uttam Nagar",
      "locality_id": "ZWL001663",
      "latitude": 28.616774,
      "longitude": 77.057136
    },
    {
      "city": "Delhi",
      "locality": "NCR Sector 47",
      "locality_id": "ZWL005762",
      "latitude": 28.424524,
      "longitude": 77.050065
    },
    {
      "city": "Delhi",
      "locality": "NCR Paharganj",
      "locality_id": "ZWL005345",
      "latitude": 28.645112,
      "longitude": 77.212824
    },
    {
      "city": "Delhi",
      "locality": "NCR Sector 25",
      "locality_id": "ZWL008225",
      "latitude": 28.484268,
      "longitude": 77.084693
    },
    {
      "city": "Delhi",
      "locality": "NCR Pitampura",
      "locality_id": "ZWL001933",
      "latitude": 28.688724,
      "longitude": 77.138225
    },
    {
      "city": "Delhi",
      "locality": "NCR Shahdara",
      "locality_id": "ZWL003591",
      "latitude": 28.688657,
      "longitude": 77.278267
    },
    {
      "city": "Delhi",
      "locality": "NCR Sector 31",
      "locality_id": "ZWL007061",
      "latitude": 28.442946,
      "longitude": 77.057195
    },
    {
      "city": "Delhi",
      "locality": "NCR Sector 23",
      "locality_id": "ZWL008476",
      "latitude": 28.50908,
      "longitude": 77.057138
    },
    {
      "city": "Delhi",
      "locality": "NCR Sector 12 (Noida)",
      "locality_id": "ZWL009008",
      "latitude": 28.599952,
      "longitude": 77.343188
    },
    {
      "city": "Delhi",
      "locality": "NCR Mayur Vihar Phase II",
      "locality_id": "ZWL005323",
      "latitude": 28.613695,
      "longitude": 77.302775
    },
    {
      "city": "Delhi",
      "locality": "NCR Faridabad Sector 12-15",
      "locality_id": "ZWL001412",
      "latitude": 28.394334,
      "longitude": 77.324016
    },
    {
      "city": "Delhi",
      "locality": "NCR DLF PHASE 1 (SECTOR 26)",
      "locality_id": "ZWL005925",
      "latitude": 28.47791,
      "longitude": 77.103843
    },
    {
      "city": "Delhi",
      "locality": "NCR Laxmi Nagar",
      "locality_id": "ZWL008716",
      "latitude": 28.627366,
      "longitude": 77.2792
    },
    {
      "city": "Delhi",
      "locality": "NCR Karol Bagh",
      "locality_id": "ZWL009339",
      "latitude": 28.647924,
      "longitude": 77.190463
    },
    {
      "city": "Delhi",
      "locality": "NCR Chhatarpur",
      "locality_id": "ZWL009096",
      "latitude": 28.497203,
      "longitude": 77.171629
    },
    {
      "city": "Delhi",
      "locality": "NCR Paschim Vihar",
      "locality_id": "ZWL006720",
      "latitude": 28.665591,
      "longitude": 77.098478
    },
    {
      "city": "Delhi",
      "locality": "NCR Sector 1, Noida",
      "locality_id": "ZWL002908",
      "latitude": 28.573663,
      "longitude": 77.415427
    },
    {
      "city": "Delhi",
      "locality": "NCR South Extension I",
      "locality_id": "ZWL001186",
      "latitude": 28.578498,
      "longitude": 77.223627
    },
    {
      "city": "Delhi",
      "locality": "NCR Sector 18",
      "locality_id": "ZWL004789",
      "latitude": 28.495291,
      "longitude": 77.069729
    },
    {
      "city": "Delhi",
      "locality": "NCR Kamla Nagar",
      "locality_id": "ZWL008978",
      "latitude": 28.676018,
      "longitude": 77.208446
    },
    {
      "city": "Delhi",
      "locality": "NCR Janakpuri",
      "locality_id": "ZWL007903",
      "latitude": 28.623431,
      "longitude": 77.097814
    },
    {
      "city": "Delhi",
      "locality": "NCR Vikaspuri",
      "locality_id": "ZWL008897",
      "latitude": 28.645655,
      "longitude": 77.065922
    },
    {
      "city": "Delhi",
      "locality": "NCR Najafgarh",
      "locality_id": "ZWL007431",
      "latitude": 28.607458,
      "longitude": 76.99598
    },
    {
      "city": "Delhi",
      "locality": "NCR Mayur Vihar Phase 1",
      "locality_id": "ZWL001112",
      "latitude": 28.609961,
      "longitude": 77.296133
    },
    {
      "city": "Delhi",
      "locality": "NCR Sez Noida 1",
      "locality_id": "ZWL008649",
      "latitude": 28.507448,
      "longitude": 77.410089
    },
    {
      "city": "Delhi",
      "locality": "NCR Gulavali, Noida",
      "locality_id": "ZWL006384",
      "latitude": 28.436941,
      "longitude": 77.456903
    },
    {
      "city": "Delhi",
      "locality": "NCR Sector 14",
      "locality_id": "ZWL007840",
      "latitude": 28.471738,
      "longitude": 77.045472
    },
    {
      "city": "Delhi",
      "locality": "NCR Sector 76(Noida)",
      "locality_id": "ZWL002072",
      "latitude": 28.570828,
      "longitude": 77.390429
    },
    {
      "city": "Delhi",
      "locality": "NCR Green Park",
      "locality_id": "ZWL003077",
      "latitude": 28.562981,
      "longitude": 77.209729
    },
    {
      "city": "Delhi",
      "locality": "NCR Munirka",
      "locality_id": "ZWL005395",
      "latitude": 28.554395,
      "longitude": 77.172547
    },
    {
      "city": "Delhi",
      "locality": "NCR NEHRU PLACE",
      "locality_id": "ZWL005729",
      "latitude": 28.555622,
      "longitude": 77.25089
    },
    {
      "city": "Delhi",
      "locality": "NCR Lajpat Nagar",
      "locality_id": "ZWL005736",
      "latitude": 28.565415,
      "longitude": 77.247221
    },
    {
      "city": "Delhi",
      "locality": "NCR Sector 52 (Noida)",
      "locality_id": "ZWL007212",
      "latitude": 28.595742,
      "longitude": 77.362995
    },
    {
      "city": "Delhi",
      "locality": "NCR Sector 100 (Noida)",
      "locality_id": "ZWL004803",
      "latitude": 28.547583,
      "longitude": 77.370951
    },
    {
      "city": "Delhi",
      "locality": "NCR Sector 50",
      "locality_id": "ZWL003444",
      "latitude": 28.418947,
      "longitude": 77.059581
    },
    {
      "city": "Delhi",
      "locality": "NCR Dilshad Garden",
      "locality_id": "ZWL008293",
      "latitude": 28.684684,
      "longitude": 77.320986
    },
    {
      "city": "Delhi",
      "locality": "NCR Sector 29, Gurgaon",
      "locality_id": "ZWL007308",
      "latitude": 28.459498,
      "longitude": 77.061046
    },
    {
      "city": "Delhi",
      "locality": "NCR SUSHANT LOK 1",
      "locality_id": "ZWL008219",
      "latitude": 28.467923,
      "longitude": 77.07653
    },
    {
      "city": "Delhi",
      "locality": "NCR SAHIBABAD",
      "locality_id": "ZWL006234",
      "latitude": 28.68292,
      "longitude": 77.362827
    },
    {
      "city": "Delhi",
      "locality": "NCR Sector 45 (Noida)",
      "locality_id": "ZWL007666",
      "latitude": 28.555596,
      "longitude": 77.345713
    },
    {
      "city": "Delhi",
      "locality": "NCR Sector 84",
      "locality_id": "ZWL002490",
      "latitude": 28.395433,
      "longitude": 76.967436
    },
    {
      "city": "Delhi",
      "locality": "NCR Sector 7, Gurgaon",
      "locality_id": "ZWL007138",
      "latitude": 28.476288,
      "longitude": 77.013365
    },
    {
      "city": "Delhi",
      "locality": "NCR Sector 27",
      "locality_id": "ZWL009706",
      "latitude": 28.46526,
      "longitude": 77.085742
    },
    {
      "city": "Delhi",
      "locality": "NCR Hauz Khas",
      "locality_id": "ZWL001267",
      "latitude": 28.551132,
      "longitude": 77.211401
    },
    {
      "city": "Delhi",
      "locality": "NCR Jangpura",
      "locality_id": "ZWL003552",
      "latitude": 28.58363,
      "longitude": 77.246915
    },
    {
      "city": "Delhi",
      "locality": "NCR Sector 52, Gurgaon",
      "locality_id": "ZWL008401",
      "latitude": 28.443858,
      "longitude": 77.083991
    },
    {
      "city": "Delhi",
      "locality": "NCR Vaishali, Ghaziabad",
      "locality_id": "ZWL001758",
      "latitude": 28.649375,
      "longitude": 77.336609
    },
    {
      "city": "Kolkata",
      "locality": "Shibpur",
      "locality_id": "ZWL003128",
      "latitude": 22.578477,
      "longitude": 88.315675
    },
    {
      "city": "Kolkata",
      "locality": "Kalyani 1, Kolkata",
      "locality_id": "ZWL004322",
      "latitude": 22.983813,
      "longitude": 88.427417
    },
    {
      "city": "Kolkata",
      "locality": "Bansdroni",
      "locality_id": "ZWL002495",
      "latitude": 22.472208,
      "longitude": 88.357875
    },
    {
      "city": "Kolkata",
      "locality": "Bow Barracks",
      "locality_id": "ZWL009257",
      "latitude": 22.565476,
      "longitude": 88.360918
    },
    {
      "city": "Kolkata",
      "locality": "Baranagar, Kolkata",
      "locality_id": "ZWL005435",
      "latitude": 22.660464,
      "longitude": 88.374255
    },
    {
      "city": "Kolkata",
      "locality": "Sonarpur, Kolkata",
      "locality_id": "ZWL007041",
      "latitude": 22.432033,
      "longitude": 88.408369
    },
    {
      "city": "Kolkata",
      "locality": "Ballygunge",
      "locality_id": "ZWL002918",
      "latitude": 22.532686,
      "longitude": 88.362677
    },
    {
      "city": "Kolkata",
      "locality": "Sinthi, Kolkata",
      "locality_id": "ZWL003388",
      "latitude": 22.627697,
      "longitude": 88.380719
    },
    {
      "city": "Kolkata",
      "locality": "Salt Lake 2",
      "locality_id": "ZWL008806",
      "latitude": 22.58356,
      "longitude": 88.432176
    },
    {
      "city": "Kolkata",
      "locality": "Alipore",
      "locality_id": "ZWL008635",
      "latitude": 22.536626,
      "longitude": 88.331142
    },
    {
      "city": "Kolkata",
      "locality": "Baguihati",
      "locality_id": "ZWL002312",
      "latitude": 22.61499,
      "longitude": 88.426184
    },
    {
      "city": "Kolkata",
      "locality": "South Dum Dum",
      "locality_id": "ZWL001499",
      "latitude": 22.62157,
      "longitude": 88.408915
    },
    {
      "city": "Kolkata",
      "locality": "Purba Barisha",
      "locality_id": "ZWL003315",
      "latitude": 22.474612,
      "longitude": 88.320775
    },
    {
      "city": "Kolkata",
      "locality": "Jadavpur",
      "locality_id": "ZWL003794",
      "latitude": 22.49872,
      "longitude": 88.36254
    },
    {
      "city": "Kolkata",
      "locality": "Tollygunge",
      "locality_id": "ZWL006574",
      "latitude": 22.49862,
      "longitude": 88.351732
    },
    {
      "city": "Kolkata",
      "locality": "Shyam Bazar",
      "locality_id": "ZWL004138",
      "latitude": 22.594302,
      "longitude": 88.377284
    },
    {
      "city": "Kolkata",
      "locality": "Behala",
      "locality_id": "ZWL009022",
      "latitude": 22.488571,
      "longitude": 88.30663
    },
    {
      "city": "Kolkata",
      "locality": "Chandannagar, Kolkata",
      "locality_id": "ZWL003271",
      "latitude": 22.865442,
      "longitude": 88.367339
    },
    {
      "city": "Kolkata",
      "locality": "Barrackpore",
      "locality_id": "ZWL003951",
      "latitude": 22.766771,
      "longitude": 88.361552
    },
    {
      "city": "Kolkata",
      "locality": "East Kolkata Township",
      "locality_id": "ZWL003915",
      "latitude": 22.512832,
      "longitude": 88.399411
    },
    {
      "city": "Kolkata",
      "locality": "Bhowanipore",
      "locality_id": "ZWL006750",
      "latitude": 22.526436,
      "longitude": 88.343904
    },
    {
      "city": "Kolkata",
      "locality": "Elgin",
      "locality_id": "ZWL008828",
      "latitude": 22.543063,
      "longitude": 88.356096
    },
    {
      "city": "Kolkata",
      "locality": "Howrah",
      "locality_id": "ZWL008426",
      "latitude": 22.604678,
      "longitude": 88.342218
    },
    {
      "city": "Kolkata",
      "locality": "New Alipore",
      "locality_id": "ZWL007323",
      "latitude": 22.506135,
      "longitude": 88.33277
    },
    {
      "city": "Kolkata",
      "locality": "Barasat",
      "locality_id": "ZWL006266",
      "latitude": 22.735727,
      "longitude": 88.490498
    },
    {
      "city": "Kolkata",
      "locality": "New Town (kolkata)",
      "locality_id": "ZWL008393",
      "latitude": 22.588818,
      "longitude": 88.457964
    },
    {
      "city": "Kolkata",
      "locality": "Uttarpara",
      "locality_id": "ZWL007966",
      "latitude": 22.69242,
      "longitude": 88.3429
    },
    {
      "city": "Kolkata",
      "locality": "Santoshpur",
      "locality_id": "ZWL001039",
      "latitude": 22.502107,
      "longitude": 88.388897
    },
    {
      "city": "Kolkata",
      "locality": "Liluah",
      "locality_id": "ZWL003882",
      "latitude": 22.635342,
      "longitude": 88.343314
    },
    {
      "city": "Kolkata",
      "locality": "Rajarhat",
      "locality_id": "ZWL004925",
      "latitude": 22.621505,
      "longitude": 88.446915
    },
    {
      "city": "Kolkata",
      "locality": "Park Street area",
      "locality_id": "ZWL005244",
      "latitude": 22.552632,
      "longitude": 88.362888
    },
    {
      "city": "Kolkata",
      "locality": "Baghajatin Colony",
      "locality_id": "ZWL003687",
      "latitude": 22.481243,
      "longitude": 88.374932
    },
    {
      "city": "Kolkata",
      "locality": "Shrirampur",
      "locality_id": "ZWL008120",
      "latitude": 22.735733,
      "longitude": 88.344597
    },
    {
      "city": "Kolkata",
      "locality": "Chhota Jagulia",
      "locality_id": "ZWL007514",
      "latitude": 22.759573,
      "longitude": 88.747215
    },
    {
      "city": "Kolkata",
      "locality": "Dum Dum",
      "locality_id": "ZWL003935",
      "latitude": 22.65631,
      "longitude": 88.423694
    },
    {
      "city": "Kolkata",
      "locality": "Kestopur",
      "locality_id": "ZWL002931",
      "latitude": 22.597524,
      "longitude": 88.431114
    },
    {
      "city": "Kolkata",
      "locality": "Sodepur",
      "locality_id": "ZWL006521",
      "latitude": 22.701254,
      "longitude": 88.383329
    },
    {
      "city": "Kolkata",
      "locality": "Nimta",
      "locality_id": "ZWL005558",
      "latitude": 22.670256,
      "longitude": 88.413503
    },
    {
      "city": "Kolkata",
      "locality": "Shapoorji",
      "locality_id": "ZWL005174",
      "latitude": 22.567623,
      "longitude": 88.497427
    },
    {
      "city": "Kolkata",
      "locality": "Barabazar Market",
      "locality_id": "ZWL002488",
      "latitude": 22.57422,
      "longitude": 88.366682
    },
    {
      "city": "Kolkata",
      "locality": "Salt Lake 1",
      "locality_id": "ZWL007934",
      "latitude": 22.573829,
      "longitude": 88.412814
    },
    {
      "city": "Kolkata",
      "locality": "Tangra",
      "locality_id": "ZWL001584",
      "latitude": 22.555059,
      "longitude": 88.388175
    },
    {
      "city": "Kolkata",
      "locality": "Gariahat",
      "locality_id": "ZWL005429",
      "latitude": 22.514492,
      "longitude": 88.362
    },
    {
      "city": "Kolkata",
      "locality": "Santragachi",
      "locality_id": "ZWL005121",
      "latitude": 22.621044,
      "longitude": 88.283605
    },
    {
      "city": "Kolkata",
      "locality": "Garia",
      "locality_id": "ZWL007830",
      "latitude": 22.469249,
      "longitude": 88.382261
    },
    {
      "city": "Kolkata",
      "locality": "Chinsurah, Kolkata",
      "locality_id": "ZWL008991",
      "latitude": 22.933551,
      "longitude": 88.398649
    },
    {
      "city": "Kolkata",
      "locality": "Kankurgachi",
      "locality_id": "ZWL009194",
      "latitude": 22.573467,
      "longitude": 88.391666
    },
    {
      "city": "Kolkata",
      "locality": "Kasba",
      "locality_id": "ZWL004722",
      "latitude": 22.521693,
      "longitude": 88.389844
    },
    {
      "city": "Mumbai",
      "locality": "Mira Road East",
      "locality_id": "ZWL006536",
      "latitude": 19.27813,
      "longitude": 72.874722
    },
    {
      "city": "Mumbai",
      "locality": "Kandivali West",
      "locality_id": "ZWL004934",
      "latitude": 19.212156,
      "longitude": 72.82885
    },
    {
      "city": "Mumbai",
      "locality": "Boisar, Mumbai",
      "locality_id": "ZWL004821",
      "latitude": 19.804797,
      "longitude": 72.745805
    },
    {
      "city": "Mumbai",
      "locality": "Bhiwandi",
      "locality_id": "ZWL007249",
      "latitude": 19.25179,
      "longitude": 73.087318
    },
    {
      "city": "Mumbai",
      "locality": "Panvel",
      "locality_id": "ZWL001164",
      "latitude": 18.998845,
      "longitude": 73.108933
    },
    {
      "city": "Mumbai",
      "locality": "Kopar Khairane (Navi Mumbai)",
      "locality_id": "ZWL009537",
      "latitude": 19.113909,
      "longitude": 73.012598
    },
    {
      "city": "Mumbai",
      "locality": "Vashi",
      "locality_id": "ZWL007275",
      "latitude": 19.067662,
      "longitude": 73.004987
    },
    {
      "city": "Mumbai",
      "locality": "Titwala, Mumbai",
      "locality_id": "ZWL002556",
      "latitude": 19.292555,
      "longitude": 73.205899
    },
    {
      "city": "Mumbai",
      "locality": "Kandivali East",
      "locality_id": "ZWL006937",
      "latitude": 19.20073,
      "longitude": 72.865461
    },
    {
      "city": "Mumbai",
      "locality": "Nalasopara",
      "locality_id": "ZWL008636",
      "latitude": 19.424433,
      "longitude": 72.817134
    },
    {
      "city": "Mumbai",
      "locality": "Lower Parel",
      "locality_id": "ZWL003995",
      "latitude": 19.005114,
      "longitude": 72.820143
    },
    {
      "city": "Mumbai",
      "locality": "Goregaon East",
      "locality_id": "ZWL006938",
      "latitude": 19.163093,
      "longitude": 72.872277
    },
    {
      "city": "Mumbai",
      "locality": "Santacruz East",
      "locality_id": "ZWL008550",
      "latitude": 19.076131,
      "longitude": 72.858715
    },
    {
      "city": "Mumbai",
      "locality": "Ghatkopar East, Mumbai",
      "locality_id": "ZWL004494",
      "latitude": 19.080794,
      "longitude": 72.92228
    },
    {
      "city": "Mumbai",
      "locality": "Palava",
      "locality_id": "ZWL003708",
      "latitude": 19.168067,
      "longitude": 73.074612
    },
    {
      "city": "Mumbai",
      "locality": "Malad West",
      "locality_id": "ZWL008711",
      "latitude": 19.187022,
      "longitude": 72.827076
    },
    {
      "city": "Mumbai",
      "locality": "Borivali East",
      "locality_id": "ZWL005991",
      "latitude": 19.241003,
      "longitude": 72.86597
    },
    {
      "city": "Mumbai",
      "locality": "Kalyan,West,Mumbai",
      "locality_id": "ZWL002865",
      "latitude": 19.255127,
      "longitude": 73.128176
    },
    {
      "city": "Mumbai",
      "locality": "Santacruz West",
      "locality_id": "ZWL004749",
      "latitude": 19.08261,
      "longitude": 72.835608
    },
    {
      "city": "Mumbai",
      "locality": "Badlapur, Mumbai",
      "locality_id": "ZWL001274",
      "latitude": 19.174156,
      "longitude": 73.225767
    },
    {
      "city": "Mumbai",
      "locality": "Ambernath",
      "locality_id": "ZWL007699",
      "latitude": 19.199776,
      "longitude": 73.181176
    },
    {
      "city": "Mumbai",
      "locality": "Marine lines",
      "locality_id": "ZWL001764",
      "latitude": 18.952178,
      "longitude": 72.825198
    },
    {
      "city": "Mumbai",
      "locality": "Mulund West",
      "locality_id": "ZWL002921",
      "latitude": 19.170765,
      "longitude": 72.942239
    },
    {
      "city": "Mumbai",
      "locality": "Airoli",
      "locality_id": "ZWL001410",
      "latitude": 19.170339,
      "longitude": 72.995114
    },
    {
      "city": "Mumbai",
      "locality": "Kharghar (Navi Mumbai)",
      "locality_id": "ZWL009757",
      "latitude": 19.069735,
      "longitude": 73.055883
    },
    {
      "city": "Mumbai",
      "locality": "Ulhasnagar (Mumbai)",
      "locality_id": "ZWL002059",
      "latitude": 19.224136,
      "longitude": 73.16934
    },
    {
      "city": "Mumbai",
      "locality": "Ghatkopar West, Mumbai",
      "locality_id": "ZWL001058",
      "latitude": 19.09674,
      "longitude": 72.904562
    },
    {
      "city": "Mumbai",
      "locality": "Bandra West",
      "locality_id": "ZWL006995",
      "latitude": 19.068857,
      "longitude": 72.833
    },
    {
      "city": "Mumbai",
      "locality": "Dadar West",
      "locality_id": "ZWL004692",
      "latitude": 19.021199,
      "longitude": 72.835378
    },
    {
      "city": "Mumbai",
      "locality": "Andheri West",
      "locality_id": "ZWL007667",
      "latitude": 19.137106,
      "longitude": 72.834828
    },
    {
      "city": "Mumbai",
      "locality": "Vile Parle West",
      "locality_id": "ZWL009338",
      "latitude": 19.10956,
      "longitude": 72.832194
    },
    {
      "city": "Mumbai",
      "locality": "Byculla",
      "locality_id": "ZWL009167",
      "latitude": 18.974283,
      "longitude": 72.833712
    },
    {
      "city": "Mumbai",
      "locality": "Vasai",
      "locality_id": "ZWL006032",
      "latitude": 19.364358,
      "longitude": 72.836612
    },
    {
      "city": "Mumbai",
      "locality": "Kalyan,East (Mumbai)",
      "locality_id": "ZWL007397",
      "latitude": 19.221503,
      "longitude": 73.138111
    },
    {
      "city": "Mumbai",
      "locality": "Ulwe, Mumbai",
      "locality_id": "ZWL009360",
      "latitude": 18.974217,
      "longitude": 73.024914
    },
    {
      "city": "Mumbai",
      "locality": "Fort",
      "locality_id": "ZWL002205",
      "latitude": 18.940613,
      "longitude": 72.834235
    },
    {
      "city": "Mumbai",
      "locality": "Andheri East",
      "locality_id": "ZWL008975",
      "latitude": 19.108639,
      "longitude": 72.874437
    },
    {
      "city": "Mumbai",
      "locality": "Chembur",
      "locality_id": "ZWL009252",
      "latitude": 19.04984,
      "longitude": 72.907847
    },
    {
      "city": "Mumbai",
      "locality": "Palghar, Mumbai",
      "locality_id": "ZWL002558",
      "latitude": 19.700631,
      "longitude": 72.763031
    },
    {
      "city": "Mumbai",
      "locality": "Mumbra, Mumbai",
      "locality_id": "ZWL002742",
      "latitude": 19.172636,
      "longitude": 73.023715
    },
    {
      "city": "Mumbai",
      "locality": "Mulund East",
      "locality_id": "ZWL004971",
      "latitude": 19.154253,
      "longitude": 72.962493
    },
    {
      "city": "Mumbai",
      "locality": "Shirdhon, Mumbai",
      "locality_id": "ZWL008348",
      "latitude": 19.195881,
      "longitude": 73.128886
    },
    {
      "city": "Mumbai",
      "locality": "Virar",
      "locality_id": "ZWL001344",
      "latitude": 19.461784,
      "longitude": 72.799199
    },
    {
      "city": "Mumbai",
      "locality": "Tardeo",
      "locality_id": "ZWL007606",
      "latitude": 18.961317,
      "longitude": 72.805513
    },
    {
      "city": "Mumbai",
      "locality": "Bandra East",
      "locality_id": "ZWL005697",
      "latitude": 19.064138,
      "longitude": 72.852737
    },
    {
      "city": "Mumbai",
      "locality": "Thane West",
      "locality_id": "ZWL005442",
      "latitude": 19.227309,
      "longitude": 72.972736
    },
    {
      "city": "Mumbai",
      "locality": "Kurla West",
      "locality_id": "ZWL004189",
      "latitude": 19.079972,
      "longitude": 72.881537
    },
    {
      "city": "Mumbai",
      "locality": "Goregaon West",
      "locality_id": "ZWL005000",
      "latitude": 19.162722,
      "longitude": 72.84161
    },
    {
      "city": "Mumbai",
      "locality": "Hiranandani Estate",
      "locality_id": "ZWL002056",
      "latitude": 19.267411,
      "longitude": 72.967074
    },
    {
      "city": "Mumbai",
      "locality": "Dombivli",
      "locality_id": "ZWL009826",
      "latitude": 19.210229,
      "longitude": 73.102272
    },
    {
      "city": "Mumbai",
      "locality": "Bhandup West",
      "locality_id": "ZWL007889",
      "latitude": 19.151889,
      "longitude": 72.934553
    },
    {
      "city": "Mumbai",
      "locality": "Kamothe",
      "locality_id": "ZWL008977",
      "latitude": 19.023359,
      "longitude": 73.091814
    },
    {
      "city": "Mumbai",
      "locality": "Powai, Mumbai",
      "locality_id": "ZWL006622",
      "latitude": 19.115248,
      "longitude": 72.908952
    },
    {
      "city": "Mumbai",
      "locality": "Naupada",
      "locality_id": "ZWL002074",
      "latitude": 19.188451,
      "longitude": 72.968001
    },
    {
      "city": "Mumbai",
      "locality": "Bhayandar West",
      "locality_id": "ZWL008874",
      "latitude": 19.257869,
      "longitude": 72.804743
    },
    {
      "city": "Mumbai",
      "locality": "Vileparle East",
      "locality_id": "ZWL001334",
      "latitude": 19.09843,
      "longitude": 72.864947
    },
    {
      "city": "Mumbai",
      "locality": "Sion",
      "locality_id": "ZWL008378",
      "latitude": 19.045271,
      "longitude": 72.864631
    },
    {
      "city": "Mumbai",
      "locality": "Nerul (Navi Mumbai)",
      "locality_id": "ZWL007690",
      "latitude": 19.031072,
      "longitude": 73.026647
    },
    {
      "city": "Mumbai",
      "locality": "Dahisar West",
      "locality_id": "ZWL007706",
      "latitude": 19.255014,
      "longitude": 72.848267
    },
    {
      "city": "Mumbai",
      "locality": "Colaba",
      "locality_id": "ZWL005320",
      "latitude": 18.919405,
      "longitude": 72.824376
    },
    {
      "city": "Mumbai",
      "locality": "Mahim",
      "locality_id": "ZWL006544",
      "latitude": 19.039256,
      "longitude": 72.843913
    },
    {
      "city": "Mumbai",
      "locality": "Wadala",
      "locality_id": "ZWL002686",
      "latitude": 19.017538,
      "longitude": 72.867138
    },
    {
      "city": "Mumbai",
      "locality": "Borivali West",
      "locality_id": "ZWL001089",
      "latitude": 19.229714,
      "longitude": 72.83971
    },
    {
      "city": "Mumbai",
      "locality": "Palava Lakeshore,Mumbai",
      "locality_id": "ZWL008360",
      "latitude": 19.165716,
      "longitude": 73.105733
    },
    {
      "city": "Bengaluru",
      "locality": "Banashankari",
      "locality_id": "ZWL003467",
      "latitude": 12.936787,
      "longitude": 77.556079
    },
    {
      "city": "Bengaluru",
      "locality": "Rajarajeshwari Nagar",
      "locality_id": "ZWL004900",
      "latitude": 12.918637,
      "longitude": 77.505467
    },
    {
      "city": "Mumbai",
      "locality": "Ambernath",
      "locality_id": "ZWL007699",
      "latitude": 19.199776,
      "longitude": 73.181176
    },
    {
      "city": "Mumbai",
      "locality": "Marine lines",
      "locality_id": "ZWL001764",
      "latitude": 18.952178,
      "longitude": 72.825198
    },
    {
      "city": "Mumbai",
      "locality": "Mulund West",
      "locality_id": "ZWL002921",
      "latitude": 19.170765,
      "longitude": 72.942239
    },
    {
      "city": "Mumbai",
      "locality": "Airoli",
      "locality_id": "ZWL001410",
      "latitude": 19.170339,
      "longitude": 72.995114
    },
    {
      "city": "Mumbai",
      "locality": "Kharghar (Navi Mumbai)",
      "locality_id": "ZWL009757",
      "latitude": 19.069735,
      "longitude": 73.055883
    },
    {
      "city": "Mumbai",
      "locality": "Ulhasnagar (Mumbai)",
      "locality_id": "ZWL002059",
      "latitude": 19.224136,
      "longitude": 73.16934
    },
    {
      "city": "Mumbai",
      "locality": "Ghatkopar West, Mumbai",
      "locality_id": "ZWL001058",
      "latitude": 19.09674,
      "longitude": 72.904562
    },
    {
      "city": "Mumbai",
      "locality": "Bandra West",
      "locality_id": "ZWL006995",
      "latitude": 19.068857,
      "longitude": 72.833
    },
    {
      "city": "Mumbai",
      "locality": "Dadar West",
      "locality_id": "ZWL004692",
      "latitude": 19.021199,
      "longitude": 72.835378
    },
    {
      "city": "Mumbai",
      "locality": "Andheri West",
      "locality_id": "ZWL007667",
      "latitude": 19.137106,
      "longitude": 72.834828
    },
    {
      "city": "Mumbai",
      "locality": "Vile Parle West",
      "locality_id": "ZWL009338",
      "latitude": 19.10956,
      "longitude": 72.832194
    },
    {
      "city": "Mumbai",
      "locality": "Byculla",
      "locality_id": "ZWL009167",
      "latitude": 18.974283,
      "longitude": 72.833712
    },
    {
      "city": "Mumbai",
      "locality": "Vasai",
      "locality_id": "ZWL006032",
      "latitude": 19.364358,
      "longitude": 72.836612
    },
    {
      "city": "Mumbai",
      "locality": "Kalyan,East (Mumbai)",
      "locality_id": "ZWL007397",
      "latitude": 19.221503,
      "longitude": 73.138111
    },
    {
      "city": "Mumbai",
      "locality": "Ulwe, Mumbai",
      "locality_id": "ZWL009360",
      "latitude": 18.974217,
      "longitude": 73.024914
    },
    {
      "city": "Mumbai",
      "locality": "Fort",
      "locality_id": "ZWL002205",
      "latitude": 18.940613,
      "longitude": 72.834235
    },
    {
      "city": "Mumbai",
      "locality": "Andheri East",
      "locality_id": "ZWL008975",
      "latitude": 19.108639,
      "longitude": 72.874437
    },
    {
      "city": "Mumbai",
      "locality": "Chembur",
      "locality_id": "ZWL009252",
      "latitude": 19.04984,
      "longitude": 72.907847
    },
    {
      "city": "Mumbai",
      "locality": "Palghar, Mumbai",
      "locality_id": "ZWL002558",
      "latitude": 19.700631,
      "longitude": 72.763031
    },
    {
      "city": "Mumbai",
      "locality": "Mumbra, Mumbai",
      "locality_id": "ZWL002742",
      "latitude": 19.172636,
      "longitude": 73.023715
    },
    {
      "city": "Mumbai",
      "locality": "Mulund East",
      "locality_id": "ZWL004971",
      "latitude": 19.154253,
      "longitude": 72.962493
    },
    {
      "city": "Mumbai",
      "locality": "Shirdhon, Mumbai",
      "locality_id": "ZWL008348",
      "latitude": 19.195881,
      "longitude": 73.128886
    },
    {
      "city": "Mumbai",
      "locality": "Virar",
      "locality_id": "ZWL001344",
      "latitude": 19.461784,
      "longitude": 72.799199
    },
    {
      "city": "Mumbai",
      "locality": "Tardeo",
      "locality_id": "ZWL007606",
      "latitude": 18.961317,
      "longitude": 72.805513
    },
    {
      "city": "Mumbai",
      "locality": "Bandra East",
      "locality_id": "ZWL005697",
      "latitude": 19.064138,
      "longitude": 72.852737
    },
    {
      "city": "Mumbai",
      "locality": "Thane West",
      "locality_id": "ZWL005442",
      "latitude": 19.227309,
      "longitude": 72.972736
    },
    {
      "city": "Mumbai",
      "locality": "Kurla West",
      "locality_id": "ZWL004189",
      "latitude": 19.079972,
      "longitude": 72.881537
    },
    {
      "city": "Mumbai",
      "locality": "Goregaon West",
      "locality_id": "ZWL005000",
      "latitude": 19.162722,
      "longitude": 72.84161
    },
    {
      "city": "Mumbai",
      "locality": "Hiranandani Estate",
      "locality_id": "ZWL002056",
      "latitude": 19.267411,
      "longitude": 72.967074
    },
    {
      "city": "Mumbai",
      "locality": "Dombivli",
      "locality_id": "ZWL009826",
      "latitude": 19.210229,
      "longitude": 73.102272
    },
    {
      "city": "Mumbai",
      "locality": "Bhandup West",
      "locality_id": "ZWL007889",
      "latitude": 19.151889,
      "longitude": 72.934553
    },
    {
      "city": "Mumbai",
      "locality": "Kamothe",
      "locality_id": "ZWL008977",
      "latitude": 19.023359,
      "longitude": 73.091814
    },
    {
      "city": "Mumbai",
      "locality": "Powai, Mumbai",
      "locality_id": "ZWL006622",
      "latitude": 19.115248,
      "longitude": 72.908952
    },
    {
      "city": "Mumbai",
      "locality": "Naupada",
      "locality_id": "ZWL002074",
      "latitude": 19.188451,
      "longitude": 72.968001
    },
    {
      "city": "Mumbai",
      "locality": "Bhayandar West",
      "locality_id": "ZWL008874",
      "latitude": 19.257869,
      "longitude": 72.804743
    },
    {
      "city": "Mumbai",
      "locality": "Vileparle East",
      "locality_id": "ZWL001334",
      "latitude": 19.09843,
      "longitude": 72.864947
    },
    {
      "city": "Mumbai",
      "locality": "Sion",
      "locality_id": "ZWL008378",
      "latitude": 19.045271,
      "longitude": 72.864631
    },
    {
      "city": "Mumbai",
      "locality": "Nerul (Navi Mumbai)",
      "locality_id": "ZWL007690",
      "latitude": 19.031072,
      "longitude": 73.026647
    },
    {
      "city": "Mumbai",
      "locality": "Dahisar West",
      "locality_id": "ZWL007706",
      "latitude": 19.255014,
      "longitude": 72.848267
    },
    {
      "city": "Mumbai",
      "locality": "Colaba",
      "locality_id": "ZWL005320",
      "latitude": 18.919405,
      "longitude": 72.824376
    },
    {
      "city": "Mumbai",
      "locality": "Mahim",
      "locality_id": "ZWL006544",
      "latitude": 19.039256,
      "longitude": 72.843913
    },
    {
      "city": "Mumbai",
      "locality": "Wadala",
      "locality_id": "ZWL002686",
      "latitude": 19.017538,
      "longitude": 72.867138
    },
    {
      "city": "Mumbai",
      "locality": "Borivali West",
      "locality_id": "ZWL001089",
      "latitude": 19.229714,
      "longitude": 72.83971
    },
    {
      "city": "Mumbai",
      "locality": "Palava Lakeshore,Mumbai",
      "locality_id": "ZWL008360",
      "latitude": 19.165716,
      "longitude": 73.105733
    },
    {
      "city": "Bengaluru",
      "locality": "Banashankari",
      "locality_id": "ZWL003467",
      "latitude": 12.936787,
      "longitude": 77.556079
    },
    {
      "city": "Bengaluru",
      "locality": "Rajarajeshwari Nagar",
      "locality_id": "ZWL004900",
      "latitude": 12.918637,
      "longitude": 77.505467
    },
    {
      "city": "Bengaluru",
      "locality": "JP Nagar",
      "locality_id": "ZWL005530",
      "latitude": 12.893441,
      "longitude": 77.560436
    },
    {
      "city": "Bengaluru",
      "locality": "Mahadevapura",
      "locality_id": "ZWL007643",
      "latitude": 12.985322,
      "longitude": 77.687578
    },
    {
      "city": "Bengaluru",
      "locality": "Jalahalli",
      "locality_id": "ZWL003159",
      "latitude": 13.031518,
      "longitude": 77.530986
    },
    {
      "city": "Bengaluru",
      "locality": "RT Nagar",
      "locality_id": "ZWL002736",
      "latitude": 13.021267,
      "longitude": 77.601234
    },
    {
      "city": "Bengaluru",
      "locality": "KR Puram",
      "locality_id": "ZWL006369",
      "latitude": 13.016987,
      "longitude": 77.706819
    },
    {
      "city": "Bengaluru",
      "locality": "Electronic City",
      "locality_id": "ZWL006274",
      "latitude": 12.833101,
      "longitude": 77.673182
    },
    {
      "city": "Bengaluru",
      "locality": "Vijayanagar",
      "locality_id": "ZWL005375",
      "latitude": 12.973219,
      "longitude": 77.519303
    },
    {
      "city": "Bengaluru",
      "locality": "Marathahalli",
      "locality_id": "ZWL008600",
      "latitude": 12.955103,
      "longitude": 77.696507
    },
    {
      "city": "Bengaluru",
      "locality": "Sarjapur road",
      "locality_id": "ZWL002292",
      "latitude": 12.900225,
      "longitude": 77.697451
    },
    {
      "city": "Bengaluru",
      "locality": "Brookefields",
      "locality_id": "ZWL004341",
      "latitude": 12.96742,
      "longitude": 77.717851
    },
    {
      "city": "Bengaluru",
      "locality": "Whitefield",
      "locality_id": "ZWL007633",
      "latitude": 12.975224,
      "longitude": 77.740422
    },
    {
      "city": "Bengaluru",
      "locality": "Nagavara",
      "locality_id": "ZWL009212",
      "latitude": 13.04837,
      "longitude": 77.625534
    },
    {
      "city": "Bengaluru",
      "locality": "New BEL Road",
      "locality_id": "ZWL007628",
      "latitude": 13.040495,
      "longitude": 77.56942
    },
    {
      "city": "Bengaluru",
      "locality": "Koramangala",
      "locality_id": "ZWL001156",
      "latitude": 12.933756,
      "longitude": 77.625825
    },
    {
      "city": "Bengaluru",
      "locality": "Bannerghatta Road, Bangalore",
      "locality_id": "ZWL004924",
      "latitude": 12.891397,
      "longitude": 77.608176
    },
    {
      "city": "Bengaluru",
      "locality": "Aavalahalli",
      "locality_id": "ZWL009229",
      "latitude": 13.034488,
      "longitude": 77.712241
    },
    {
      "city": "Bengaluru",
      "locality": "BIAL Airport Road",
      "locality_id": "ZWL005576",
      "latitude": 13.178996,
      "longitude": 77.630005
    },
    {
      "city": "Bengaluru",
      "locality": "Yelahanka",
      "locality_id": "ZWL006658",
      "latitude": 13.111809,
      "longitude": 77.589276
    },
    {
      "city": "Bengaluru",
      "locality": "Kadugodi",
      "locality_id": "ZWL002882",
      "latitude": 13.007511,
      "longitude": 77.763209
    },
    {
      "city": "Bengaluru",
      "locality": "Kammanahalli",
      "locality_id": "ZWL006631",
      "latitude": 13.01605,
      "longitude": 77.661735
    },
    {
      "city": "Bengaluru",
      "locality": "HSR Layout",
      "locality_id": "ZWL001196",
      "latitude": 12.908482,
      "longitude": 77.641773
    },
    {
      "city": "Bengaluru",
      "locality": "BTM Layout",
      "locality_id": "ZWL006600",
      "latitude": 12.916931,
      "longitude": 77.608897
    },
    {
      "city": "Bengaluru",
      "locality": "Varthur",
      "locality_id": "ZWL006854",
      "latitude": 12.936055,
      "longitude": 77.723415
    },
    {
      "city": "Bengaluru",
      "locality": "Indiranagar",
      "locality_id": "ZWL001273",
      "latitude": 12.952636,
      "longitude": 77.653059
    },
    {
      "city": "Bengaluru",
      "locality": "Jayanagar",
      "locality_id": "ZWL008105",
      "latitude": 12.944441,
      "longitude": 77.581003
    },
    {
      "city": "Bengaluru",
      "locality": "Sahakaranagar",
      "locality_id": "ZWL005206",
      "latitude": 13.059918,
      "longitude": 77.591344
    },
    {
      "city": "Bengaluru",
      "locality": "Devanahalli, Bangalore",
      "locality_id": "ZWL008797",
      "latitude": 13.258381,
      "longitude": 77.716183
    },
    {
      "city": "Bengaluru",
      "locality": "MG Road",
      "locality_id": "ZWL001962",
      "latitude": 12.982689,
      "longitude": 77.608075
    },
    {
      "city": "Bengaluru",
      "locality": "Rajajinagar",
      "locality_id": "ZWL006844",
      "latitude": 12.993217,
      "longitude": 77.557903
    },
    {
      "city": "Bengaluru",
      "locality": "Bellandur",
      "locality_id": "ZWL004164",
      "latitude": 12.936225,
      "longitude": 77.665059
    },
    {
      "city": "Pune",
      "locality": "NIGDI(Pune)",
      "locality_id": "ZWL007698",
      "latitude": 18.646511,
      "longitude": 73.775411
    },
    {
      "city": "Pune",
      "locality": "Bibvewadi (Pune)",
      "locality_id": "ZWL005773",
      "latitude": 18.492332,
      "longitude": 73.861939
    },
    {
      "city": "Pune",
      "locality": "Nanded-Nahre",
      "locality_id": "ZWL009577",
      "latitude": 18.453179,
      "longitude": 73.811077
    },
    {
      "city": "Pune",
      "locality": "Bhosari (Pune)",
      "locality_id": "ZWL002253",
      "latitude": 18.643893,
      "longitude": 73.858653
    },
    {
      "city": "Pune",
      "locality": "Camp Area",
      "locality_id": "ZWL003498",
      "latitude": 18.513693,
      "longitude": 73.877293
    },
    {
      "city": "Pune",
      "locality": "Magarpatta",
      "locality_id": "ZWL004311",
      "latitude": 18.519482,
      "longitude": 73.93436
    },
    {
      "city": "Pune",
      "locality": "Pimpri",
      "locality_id": "ZWL007801",
      "latitude": 18.625381,
      "longitude": 73.791194
    },
    {
      "city": "Pune",
      "locality": "Yerwada",
      "locality_id": "ZWL008134",
      "latitude": 18.544659,
      "longitude": 73.869499
    },
    {
      "city": "Pune",
      "locality": "Kalyani Nagar (Pune)",
      "locality_id": "ZWL009625",
      "latitude": 18.546538,
      "longitude": 73.906594
    },
    {
      "city": "Pune",
      "locality": "Sus, Pune",
      "locality_id": "ZWL001627",
      "latitude": 18.564293,
      "longitude": 73.753879
    },
    {
      "city": "Pune",
      "locality": "Bavdhan",
      "locality_id": "ZWL006236",
      "latitude": 18.51473,
      "longitude": 73.777922
    },
    {
      "city": "Pune",
      "locality": "Viman nagar",
      "locality_id": "ZWL006743",
      "latitude": 18.564998,
      "longitude": 73.911551
    },
    {
      "city": "Pune",
      "locality": "Aundh (Pune)",
      "locality_id": "ZWL004927",
      "latitude": 18.559795,
      "longitude": 73.807123
    },
    {
      "city": "Pune",
      "locality": "Katraj (Pune)",
      "locality_id": "ZWL008370",
      "latitude": 18.451394,
      "longitude": 73.847642
    },
    {
      "city": "Pune",
      "locality": "Pimple Saudagar_Pune",
      "locality_id": "ZWL004523",
      "latitude": 18.600897,
      "longitude": 73.798441
    },
    {
      "city": "Pune",
      "locality": "Dhanori",
      "locality_id": "ZWL001778",
      "latitude": 18.588936,
      "longitude": 73.907711
    },
    {
      "city": "Pune",
      "locality": "Dehu Road",
      "locality_id": "ZWL003386",
      "latitude": 18.695874,
      "longitude": 73.740365
    },
    {
      "city": "Pune",
      "locality": "Koregaon Park (Pune)",
      "locality_id": "ZWL009157",
      "latitude": 18.535326,
      "longitude": 73.883976
    },
    {
      "city": "Pune",
      "locality": "Hinjewadi - Phase 2",
      "locality_id": "ZWL004962",
      "latitude": 18.585004,
      "longitude": 73.706319
    },
    {
      "city": "Pune",
      "locality": "Wakad_Pune",
      "locality_id": "ZWL005340",
      "latitude": 18.599555,
      "longitude": 73.774652
    },
    {
      "city": "Pune",
      "locality": "Manas Lake, Pune",
      "locality_id": "ZWL009671",
      "latitude": 18.491382,
      "longitude": 73.748953
    },
    {
      "city": "Pune",
      "locality": "Sadashiv Peth",
      "locality_id": "ZWL008921",
      "latitude": 18.511357,
      "longitude": 73.856996
    },
    {
      "city": "Pune",
      "locality": "Ghorpadi (Pune)",
      "locality_id": "ZWL008940",
      "latitude": 18.519767,
      "longitude": 73.897269
    },
    {
      "city": "Pune",
      "locality": "Pashan (Pune)",
      "locality_id": "ZWL009874",
      "latitude": 18.527587,
      "longitude": 73.789459
    },
    {
      "city": "Pune",
      "locality": "SP Infocity, Pune",
      "locality_id": "ZWL006660",
      "latitude": 18.487813,
      "longitude": 73.947187
    },
    {
      "city": "Pune",
      "locality": "Manjri,Pune",
      "locality_id": "ZWL003813",
      "latitude": 18.509232,
      "longitude": 73.978364
    },
    {
      "city": "Pune",
      "locality": "Khadki, Pune",
      "locality_id": "ZWL007471",
      "latitude": 18.563289,
      "longitude": 73.835023
    },
    {
      "city": "Pune",
      "locality": "Kothrud (Pune)",
      "locality_id": "ZWL009602",
      "latitude": 18.504984,
      "longitude": 73.811587
    },
    {
      "city": "Pune",
      "locality": "Sinhagad Road(Pune)",
      "locality_id": "ZWL002208",
      "latitude": 18.477264,
      "longitude": 73.826437
    },
    {
      "city": "Pune",
      "locality": "New Sangvi, Pune",
      "locality_id": "ZWL007895",
      "latitude": 18.578959,
      "longitude": 73.823437
    },
    {
      "city": "Pune",
      "locality": "Nimgaon, Pune",
      "locality_id": "ZWL003099",
      "latitude": 18.794589,
      "longitude": 73.910016
    },
    {
      "city": "Pune",
      "locality": "Wagholi",
      "locality_id": "ZWL004575",
      "latitude": 18.57931,
      "longitude": 73.972122
    },
    {
      "city": "Pune",
      "locality": "Keshavnagar, Pune",
      "locality_id": "ZWL004513",
      "latitude": 18.537273,
      "longitude": 73.944521
    },
    {
      "city": "Pune",
      "locality": "Baner (Pune)",
      "locality_id": "ZWL008983",
      "latitude": 18.567954,
      "longitude": 73.783475
    },
    {
      "city": "Pune",
      "locality": "Warje (Pune)",
      "locality_id": "ZWL005520",
      "latitude": 18.472703,
      "longitude": 73.7884
    },
    {
      "city": "Pune",
      "locality": "Mundwa, Pune",
      "locality_id": "ZWL003300",
      "latitude": 18.53522,
      "longitude": 73.918549
    },
    {
      "city": "Pune",
      "locality": "Chakan",
      "locality_id": "ZWL001963",
      "latitude": 18.752436,
      "longitude": 73.837484
    },
    {
      "city": "Pune",
      "locality": "Shivaji Nagar (Pune)",
      "locality_id": "ZWL002422",
      "latitude": 18.526724,
      "longitude": 73.841658
    },
    {
      "city": "Pune",
      "locality": "Yewalewadi, Pune",
      "locality_id": "ZWL005088",
      "latitude": 18.439804,
      "longitude": 73.902433
    },
    {
      "city": "Pune",
      "locality": "Bopkhel, Pune",
      "locality_id": "ZWL003014",
      "latitude": 18.586306,
      "longitude": 73.859602
    },
    {
      "city": "Pune",
      "locality": "Kharadi",
      "locality_id": "ZWL001472",
      "latitude": 18.55239,
      "longitude": 73.941901
    },
    {
      "city": "Pune",
      "locality": "Talegaon Dabhade",
      "locality_id": "ZWL004339",
      "latitude": 18.738724,
      "longitude": 73.675701
    },
    {
      "city": "Pune",
      "locality": "Hinjewadi - Phase 1",
      "locality_id": "ZWL003817",
      "latitude": 18.596583,
      "longitude": 73.733312
    },
    {
      "city": "Pune",
      "locality": "Wanowrie-Kondhwa",
      "locality_id": "ZWL007925",
      "latitude": 18.477085,
      "longitude": 73.900966
    },
    {
      "city": "Hyderabad",
      "locality": "Nagole",
      "locality_id": "ZWL003370",
      "latitude": 17.359969,
      "longitude": 78.565724
    },
    {
      "city": "Hyderabad",
      "locality": "Attapur",
      "locality_id": "ZWL002088",
      "latitude": 17.380875,
      "longitude": 78.415717
    },
    {
      "city": "Hyderabad",
      "locality": "Peerzadiguda",
      "locality_id": "ZWL006702",
      "latitude": 17.411644,
      "longitude": 78.57822
    },
    {
      "city": "Hyderabad",
      "locality": "Begumpet",
      "locality_id": "ZWL008776",
      "latitude": 17.442659,
      "longitude": 78.482009
    },
    {
      "city": "Hyderabad",
      "locality": "Suraram, Hyderabad",
      "locality_id": "ZWL003918",
      "latitude": 17.559752,
      "longitude": 78.437467
    },
    {
      "city": "Hyderabad",
      "locality": "Banjara Hills",
      "locality_id": "ZWL004079",
      "latitude": 17.419238,
      "longitude": 78.438474
    },
    {
      "city": "Hyderabad",
      "locality": "Alwal",
      "locality_id": "ZWL008309",
      "latitude": 17.508852,
      "longitude": 78.507402
    },
    {
      "city": "Hyderabad",
      "locality": "Sainikpuri",
      "locality_id": "ZWL002433",
      "latitude": 17.489079,
      "longitude": 78.55891
    },
    {
      "city": "Hyderabad",
      "locality": "Saroor Nagar",
      "locality_id": "ZWL007390",
      "latitude": 17.348264,
      "longitude": 78.530476
    },
    {
      "city": "Hyderabad",
      "locality": "Karkhana",
      "locality_id": "ZWL004767",
      "latitude": 17.467142,
      "longitude": 78.496696
    },
    {
      "city": "Hyderabad",
      "locality": "Kompally",
      "locality_id": "ZWL006016",
      "latitude": 17.533309,
      "longitude": 78.489965
    },
    {
      "city": "Hyderabad",
      "locality": "Himayatnagar",
      "locality_id": "ZWL003283",
      "latitude": 17.402602,
      "longitude": 78.487229
    },
    {
      "city": "Hyderabad",
      "locality": "Medchal Road",
      "locality_id": "ZWL007311",
      "latitude": 17.637191,
      "longitude": 78.480392
    },
    {
      "city": "Hyderabad",
      "locality": "Kukatpally",
      "locality_id": "ZWL005919",
      "latitude": 17.495894,
      "longitude": 78.416259
    },
    {
      "city": "Hyderabad",
      "locality": "Amberpet",
      "locality_id": "ZWL001822",
      "latitude": 17.407658,
      "longitude": 78.521703
    },
    {
      "city": "Hyderabad",
      "locality": "Jeedimetla",
      "locality_id": "ZWL008208",
      "latitude": 17.495621,
      "longitude": 78.450281
    },
    {
      "city": "Hyderabad",
      "locality": "Gachibowli",
      "locality_id": "ZWL001362",
      "latitude": 17.452114,
      "longitude": 78.351486
    },
    {
      "city": "Hyderabad",
      "locality": "LB Nagar",
      "locality_id": "ZWL002162",
      "latitude": 17.345727,
      "longitude": 78.557062
    },
    {
      "city": "Hyderabad",
      "locality": "Dilsukhnagar",
      "locality_id": "ZWL009712",
      "latitude": 17.370431,
      "longitude": 78.536184
    },
    {
      "city": "Hyderabad",
      "locality": "Masab Tank",
      "locality_id": "ZWL005963",
      "latitude": 17.398217,
      "longitude": 78.462258
    },
    {
      "city": "Hyderabad",
      "locality": "Bachupally",
      "locality_id": "ZWL008297",
      "latitude": 17.544887,
      "longitude": 78.359975
    },
    {
      "city": "Hyderabad",
      "locality": "Manikonda",
      "locality_id": "ZWL005424",
      "latitude": 17.40593,
      "longitude": 78.38838
    },
    {
      "city": "Hyderabad",
      "locality": "Shamshabad",
      "locality_id": "ZWL008585",
      "latitude": 17.257432,
      "longitude": 78.38792
    },
    {
      "city": "Hyderabad",
      "locality": "Miyapur",
      "locality_id": "ZWL008599",
      "latitude": 17.500034,
      "longitude": 78.34267
    },
    {
      "city": "Hyderabad",
      "locality": "Hayath Nagar, Hyderabad",
      "locality_id": "ZWL006535",
      "latitude": 17.32662,
      "longitude": 78.609288
    },
    {
      "city": "Hyderabad",
      "locality": "Sangareddy, Hyderabad",
      "locality_id": "ZWL006545",
      "latitude": 17.598038,
      "longitude": 78.091346
    },
    {
      "city": "Hyderabad",
      "locality": "JNTU",
      "locality_id": "ZWL009719",
      "latitude": 17.485166,
      "longitude": 78.389775
    },
    {
      "city": "Hyderabad",
      "locality": "Serilingampally",
      "locality_id": "ZWL008890",
      "latitude": 17.485245,
      "longitude": 78.313916
    },
    {
      "city": "Hyderabad",
      "locality": "Nizampet",
      "locality_id": "ZWL007119",
      "latitude": 17.509398,
      "longitude": 78.390364
    },
    {
      "city": "Hyderabad",
      "locality": "Q City, Hyderabad",
      "locality_id": "ZWL004747",
      "latitude": 17.421788,
      "longitude": 78.318868
    },
    {
      "city": "Hyderabad",
      "locality": "Madhapur",
      "locality_id": "ZWL004802",
      "latitude": 17.441185,
      "longitude": 78.398416
    },
    {
      "city": "Hyderabad",
      "locality": "Narayanguda",
      "locality_id": "ZWL004665",
      "latitude": 17.39212,
      "longitude": 78.494443
    },
    {
      "city": "Hyderabad",
      "locality": "ECIL",
      "locality_id": "ZWL005999",
      "latitude": 17.460327,
      "longitude": 78.567924
    },
    {
      "city": "Hyderabad",
      "locality": "Toli Chowki",
      "locality_id": "ZWL003360",
      "latitude": 17.398121,
      "longitude": 78.421238
    },
    {
      "city": "Hyderabad",
      "locality": "Kondapur",
      "locality_id": "ZWL007187",
      "latitude": 17.472485,
      "longitude": 78.367854
    },
    {
      "city": "Hyderabad",
      "locality": "Charminar",
      "locality_id": "ZWL007344",
      "latitude": 17.375037,
      "longitude": 78.454499
    },
    {
      "city": "Hyderabad",
      "locality": "Sivarampalli",
      "locality_id": "ZWL008438",
      "latitude": 17.345995,
      "longitude": 78.439283
    },
    {
      "city": "Hyderabad",
      "locality": "Tarnaka",
      "locality_id": "ZWL005494",
      "latitude": 17.431829,
      "longitude": 78.55094
    },
    {
      "city": "Hyderabad",
      "locality": "Moosapet",
      "locality_id": "ZWL009519",
      "latitude": 17.453292,
      "longitude": 78.421126
    },
    {
      "city": "Hyderabad",
      "locality": "Patancheru, Hyderabad",
      "locality_id": "ZWL001687",
      "latitude": 17.542613,
      "longitude": 78.276529
    },
    {
      "city": "Hyderabad",
      "locality": "Vanasthali Puram",
      "locality_id": "ZWL005569",
      "latitude": 17.318241,
      "longitude": 78.544989
    },
    {
      "city": "Hyderabad",
      "locality": "Ameerpet",
      "locality_id": "ZWL003027",
      "latitude": 17.434737,
      "longitude": 78.446618
    },
    {
      "city": "Hyderabad",
      "locality": "Uppal",
      "locality_id": "ZWL001337",
      "latitude": 17.403149,
      "longitude": 78.554106
    },
    {
      "city": "Hyderabad",
      "locality": "Malakpet",
      "locality_id": "ZWL001579",
      "latitude": 17.371621,
      "longitude": 78.502672
    },
    {
      "city": "Hyderabad",
      "locality": "Hafiz Baba Nagar",
      "locality_id": "ZWL006699",
      "latitude": 17.338717,
      "longitude": 78.49759
    },
    {
      "city": "Hyderabad",
      "locality": "Mokila, Hyderabad",
      "locality_id": "ZWL008512",
      "latitude": 17.436228,
      "longitude": 78.190072
    },
    {
      "city": "Chennai",
      "locality": "Potheri",
      "locality_id": "ZWL006789",
      "latitude": 12.799983,
      "longitude": 80.029865
    },
    {
      "city": "Chennai",
      "locality": "Pallavaram",
      "locality_id": "ZWL004297",
      "latitude": 12.973055,
      "longitude": 80.151271
    },
    {
      "city": "Chennai",
      "locality": "Nungambakkam",
      "locality_id": "ZWL005190",
      "latitude": 13.060471,
      "longitude": 80.255887
    },
    {
      "city": "Chennai",
      "locality": "Anna Nagar, Chennai",
      "locality_id": "ZWL003967",
      "latitude": 13.086884,
      "longitude": 80.206602
    },
    {
      "city": "Chennai",
      "locality": "Perambur",
      "locality_id": "ZWL008996",
      "latitude": 13.121741,
      "longitude": 80.225058
    },
    {
      "city": "Chennai",
      "locality": "Mogappair, Chennai",
      "locality_id": "ZWL005857",
      "latitude": 13.080365,
      "longitude": 80.175724
    },
    {
      "city": "Chennai",
      "locality": "Royapuram",
      "locality_id": "ZWL006232",
      "latitude": 13.136635,
      "longitude": 80.289535
    },
    {
      "city": "Chennai",
      "locality": "Mugalivakkam",
      "locality_id": "ZWL008548",
      "latitude": 13.014886,
      "longitude": 80.152455
    },
    {
      "city": "Chennai",
      "locality": "Porur",
      "locality_id": "ZWL006053",
      "latitude": 13.048069,
      "longitude": 80.158163
    },
    {
      "city": "Chennai",
      "locality": "Redhills",
      "locality_id": "ZWL001398",
      "latitude": 13.191443,
      "longitude": 80.181225
    },
    {
      "city": "Chennai",
      "locality": "Tambaram",
      "locality_id": "ZWL001701",
      "latitude": 12.934834,
      "longitude": 80.101824
    },
    {
      "city": "Chennai",
      "locality": "Avadi",
      "locality_id": "ZWL008876",
      "latitude": 13.125301,
      "longitude": 80.069776
    },
    {
      "city": "Chennai",
      "locality": "Kilpauk",
      "locality_id": "ZWL003387",
      "latitude": 13.080772,
      "longitude": 80.248018
    },
    {
      "city": "Chennai",
      "locality": "Ashok Nagar (CHENNAI)",
      "locality_id": "ZWL007059",
      "latitude": 13.02268,
      "longitude": 80.200286
    },
    {
      "city": "Chennai",
      "locality": "Adyar",
      "locality_id": "ZWL006520",
      "latitude": 12.993947,
      "longitude": 80.247174
    },
    {
      "city": "Chennai",
      "locality": "Alwarpet",
      "locality_id": "ZWL001210",
      "latitude": 13.032366,
      "longitude": 80.257625
    },
    {
      "city": "Chennai",
      "locality": "Selaiyur",
      "locality_id": "ZWL007171",
      "latitude": 12.91657,
      "longitude": 80.134348
    },
    {
      "city": "Chennai",
      "locality": "Thandalam, Chennai",
      "locality_id": "ZWL006329",
      "latitude": 12.863785,
      "longitude": 79.947886
    },
    {
      "city": "Chennai",
      "locality": "Sholinganallur",
      "locality_id": "ZWL004233",
      "latitude": 12.921608,
      "longitude": 80.233727
    },
    {
      "city": "Chennai",
      "locality": "Ambattur",
      "locality_id": "ZWL007209",
      "latitude": 13.117566,
      "longitude": 80.146667
    },
    {
      "city": "Chennai",
      "locality": "Medavakkam",
      "locality_id": "ZWL003452",
      "latitude": 12.931197,
      "longitude": 80.182327
    },
    {
      "city": "Chennai",
      "locality": "Poonamallee",
      "locality_id": "ZWL007176",
      "latitude": 13.052763,
      "longitude": 80.090763
    },
    {
      "city": "Chennai",
      "locality": "Minjur, Chennai",
      "locality_id": "ZWL009897",
      "latitude": 13.282298,
      "longitude": 80.266616
    },
    {
      "city": "Chennai",
      "locality": "Urapakkam",
      "locality_id": "ZWL004882",
      "latitude": 12.878957,
      "longitude": 80.070307
    },
    {
      "city": "Chennai",
      "locality": "Velachery",
      "locality_id": "ZWL006156",
      "latitude": 12.9893,
      "longitude": 80.199988
    },
    {
      "city": "Chennai",
      "locality": "Navallur",
      "locality_id": "ZWL001141",
      "latitude": 12.841923,
      "longitude": 80.209025
    },
    {
      "city": "Chennai",
      "locality": "Vadapalani",
      "locality_id": "ZWL004431",
      "latitude": 13.06516,
      "longitude": 80.207917
    },
    {
      "city": "Chennai",
      "locality": "T Nagar",
      "locality_id": "ZWL001516",
      "latitude": 13.026256,
      "longitude": 80.22812
    },
    {
      "city": "Lucknow",
      "locality": "Hazratganj",
      "locality_id": "ZWL003425",
      "latitude": 26.844819,
      "longitude": 80.940833
    },
    {
      "city": "Lucknow",
      "locality": "Aminabad",
      "locality_id": "ZWL006490",
      "latitude": 26.85677,
      "longitude": 80.925103
    },
    {
      "city": "Lucknow",
      "locality": "Chowk",
      "locality_id": "ZWL009091",
      "latitude": 26.873686,
      "longitude": 80.894502
    },
    {
      "city": "Lucknow",
      "locality": "Telibagh, Lucknow",
      "locality_id": "ZWL003030",
      "latitude": 26.776664,
      "longitude": 80.936755
    },
    {
      "city": "Lucknow",
      "locality": "Husainganj",
      "locality_id": "ZWL004978",
      "latitude": 26.83697,
      "longitude": 80.92611
    },
    {
      "city": "Lucknow",
      "locality": "Jankipuram",
      "locality_id": "ZWL009177",
      "latitude": 26.926427,
      "longitude": 80.936884
    },
    {
      "city": "Lucknow",
      "locality": "Arjunganj",
      "locality_id": "ZWL004436",
      "latitude": 26.794554,
      "longitude": 80.999112
    },
    {
      "city": "Lucknow",
      "locality": "Chinhat, Lucknow",
      "locality_id": "ZWL005470",
      "latitude": 26.878323,
      "longitude": 81.038299
    },
    {
      "city": "Lucknow",
      "locality": "Mahanagar",
      "locality_id": "ZWL001500",
      "latitude": 26.886387,
      "longitude": 80.960641
    },
    {
      "city": "Lucknow",
      "locality": "Ashiyana",
      "locality_id": "ZWL003371",
      "latitude": 26.79051,
      "longitude": 80.913855
    },
    {
      "city": "Lucknow",
      "locality": "Indira Nagar, Lucknow",
      "locality_id": "ZWL003635",
      "latitude": 26.883684,
      "longitude": 80.99029
    },
    {
      "city": "Lucknow",
      "locality": "Vasant Kunj, Lucknow",
      "locality_id": "ZWL003320",
      "latitude": 26.877121,
      "longitude": 80.878447
    },
    {
      "city": "Lucknow",
      "locality": "Rajajipuram",
      "locality_id": "ZWL009682",
      "latitude": 26.842055,
      "longitude": 80.873868
    },
    {
      "city": "Lucknow",
      "locality": "Gomti Nagar",
      "locality_id": "ZWL002273",
      "latitude": 26.850582,
      "longitude": 80.999875
    },
    {
      "city": "Lucknow",
      "locality": "Alambagh",
      "locality_id": "ZWL002331",
      "latitude": 26.810769,
      "longitude": 80.904864
    },
    {
      "city": "Lucknow",
      "locality": "Aliganj, Lucknow",
      "locality_id": "ZWL007731",
      "latitude": 26.890082,
      "longitude": 80.942007
    },
    {
      "city": "Lucknow",
      "locality": "Kalyanpur",
      "locality_id": "ZWL007011",
      "latitude": 26.907206,
      "longitude": 80.974143
    },
    {
      "city": "Kochi",
      "locality": "Eroor",
      "locality_id": "ZWL003768",
      "latitude": 9.929826,
      "longitude": 76.332369
    },
    {
      "city": "Kochi",
      "locality": "Kakkanad",
      "locality_id": "ZWL005555",
      "latitude": 10.014153,
      "longitude": 76.358626
    },
    {
      "city": "Kochi",
      "locality": "Nedumbassery,Kochi",
      "locality_id": "ZWL002986",
      "latitude": 10.178008,
      "longitude": 76.386636
    },
    {
      "city": "Kochi",
      "locality": "North Paravur, Kochi",
      "locality_id": "ZWL004273",
      "latitude": 10.162441,
      "longitude": 76.216317
    },
    {
      "city": "Kochi",
      "locality": "Aluva, Kochi",
      "locality_id": "ZWL005425",
      "latitude": 10.106615,
      "longitude": 76.348843
    },
    {
      "city": "Kochi",
      "locality": "Ambalamugal",
      "locality_id": "ZWL004691",
      "latitude": 9.980241,
      "longitude": 76.397987
    },
    {
      "city": "Kochi",
      "locality": "Kalamassery",
      "locality_id": "ZWL001981",
      "latitude": 10.046034,
      "longitude": 76.308117
    },
    {
      "city": "Kochi",
      "locality": "Kaloor",
      "locality_id": "ZWL003786",
      "latitude": 10.000143,
      "longitude": 76.298744
    },
    {
      "city": "Kochi",
      "locality": "Perumbavoor,Kochi",
      "locality_id": "ZWL009487",
      "latitude": 10.117563,
      "longitude": 76.46032
    },
    {
      "city": "Kochi",
      "locality": "Thiruvankulam",
      "locality_id": "ZWL007216",
      "latitude": 9.932264,
      "longitude": 76.38574
    },
    {
      "city": "Kochi",
      "locality": "Vypin, Kochi",
      "locality_id": "ZWL002327",
      "latitude": 10.019731,
      "longitude": 76.245595
    },
    {
      "city": "Kochi",
      "locality": "Ernakulam",
      "locality_id": "ZWL006873",
      "latitude": 9.969514,
      "longitude": 76.288288
    },
    {
      "city": "Kochi",
      "locality": "Fort Kochi",
      "locality_id": "ZWL004591",
      "latitude": 9.931564,
      "longitude": 76.268065
    },
    {
      "city": "Jaipur",
      "locality": "Mansarovar-2",
      "locality_id": "ZWL005082",
      "latitude": 26.844258,
      "longitude": 75.76857
    },
    {
      "city": "Jaipur",
      "locality": "Tonk road 2",
      "locality_id": "ZWL003863",
      "latitude": 26.853567,
      "longitude": 75.794945
    },
    {
      "city": "Jaipur",
      "locality": "Jagatpura",
      "locality_id": "ZWL009286",
      "latitude": 26.825942,
      "longitude": 75.851086
    },
    {
      "city": "Jaipur",
      "locality": "Shyam Nagar",
      "locality_id": "ZWL009458",
      "latitude": 26.887617,
      "longitude": 75.756174
    },
    {
      "city": "Jaipur",
      "locality": "C Scheme",
      "locality_id": "ZWL003704",
      "latitude": 26.916823,
      "longitude": 75.80119
    },
    {
      "city": "Jaipur",
      "locality": "Lal Kothi",
      "locality_id": "ZWL003606",
      "latitude": 26.893689,
      "longitude": 75.7978
    },
    {
      "city": "Jaipur",
      "locality": "Pink City",
      "locality_id": "ZWL009569",
      "latitude": 26.929588,
      "longitude": 75.823855
    },
    {
      "city": "Jaipur",
      "locality": "Vaishali Nagar",
      "locality_id": "ZWL001750",
      "latitude": 26.909885,
      "longitude": 75.739394
    },
    {
      "city": "Jaipur",
      "locality": "Malviya Nagar",
      "locality_id": "ZWL002751",
      "latitude": 26.854191,
      "longitude": 75.810798
    },
    {
      "city": "Jaipur",
      "locality": "Sodala",
      "locality_id": "ZWL005080",
      "latitude": 26.904751,
      "longitude": 75.777608
    },
    {
      "city": "Jaipur",
      "locality": "Vidhyadhar Nagar",
      "locality_id": "ZWL008680",
      "latitude": 26.963051,
      "longitude": 75.770166
    },
    {
      "city": "Jaipur",
      "locality": "Raja Park",
      "locality_id": "ZWL008249",
      "latitude": 26.902497,
      "longitude": 75.826544
    },
    {
      "city": "Jaipur",
      "locality": "Shastri Nagar",
      "locality_id": "ZWL008915",
      "latitude": 26.936514,
      "longitude": 75.797054
    },
    {
      "city": "Jaipur",
      "locality": "Pratap Nagar",
      "locality_id": "ZWL006372",
      "latitude": 26.798396,
      "longitude": 75.815353
    },
    {
      "city": "Ahmedabad",
      "locality": "Paldi",
      "locality_id": "ZWL003133",
      "latitude": 22.994998,
      "longitude": 72.557474
    },
    {
      "city": "Ahmedabad",
      "locality": "Shahibag",
      "locality_id": "ZWL002302",
      "latitude": 23.058607,
      "longitude": 72.592212
    },
    {
      "city": "Ahmedabad",
      "locality": "Navrangpura",
      "locality_id": "ZWL003747",
      "latitude": 23.038426,
      "longitude": 72.558241
    },
    {
      "city": "Ahmedabad",
      "locality": "Chandkheda",
      "locality_id": "ZWL002503",
      "latitude": 23.117204,
      "longitude": 72.607123
    },
    {
      "city": "Ahmedabad",
      "locality": "Science-City Sola",
      "locality_id": "ZWL005979",
      "latitude": 23.087361,
      "longitude": 72.510289
    },
    {
      "city": "Ahmedabad",
      "locality": "Sector 16, Gandhinagar",
      "locality_id": "ZWL005987",
      "latitude": 23.216612,
      "longitude": 72.652543
    },
    {
      "city": "Ahmedabad",
      "locality": "Vastrapur",
      "locality_id": "ZWL001959",
      "latitude": 23.042513,
      "longitude": 72.524312
    },
    {
      "city": "Ahmedabad",
      "locality": "Prahlad Nagar",
      "locality_id": "ZWL007404",
      "latitude": 22.998074,
      "longitude": 72.515955
    },
    {
      "city": "Ahmedabad",
      "locality": "Nikol",
      "locality_id": "ZWL001898",
      "latitude": 23.077071,
      "longitude": 72.637566
    },
    {
      "city": "Ahmedabad",
      "locality": "Infocity, Gandhinagar",
      "locality_id": "ZWL002250",
      "latitude": 23.177762,
      "longitude": 72.636221
    },
    {
      "city": "Ahmedabad",
      "locality": "Naranpura",
      "locality_id": "ZWL004415",
      "latitude": 23.072018,
      "longitude": 72.573161
    },
    {
      "city": "Ahmedabad",
      "locality": "Bopal",
      "locality_id": "ZWL006288",
      "latitude": 23.011294,
      "longitude": 72.464041
    },
    {
      "city": "Ahmedabad",
      "locality": "Maninagar",
      "locality_id": "ZWL009182",
      "latitude": 22.985307,
      "longitude": 72.610322
    },
    {
      "city": "Ahmedabad",
      "locality": "Bodakdev",
      "locality_id": "ZWL009990",
      "latitude": 23.055398,
      "longitude": 72.491724
    },
    {
      "city": "Ahmedabad",
      "locality": "Gota",
      "locality_id": "ZWL003455",
      "latitude": 23.131231,
      "longitude": 72.543606
    },
    {
      "city": "Chandigarh",
      "locality": "Sector 15 (Chandigarh)",
      "locality_id": "ZWL007561",
      "latitude": 30.764466,
      "longitude": 76.774815
    },
    {
      "city": "Chandigarh",
      "locality": "Sector 8 (Chandigarh)",
      "locality_id": "ZWL006687",
      "latitude": 30.749265,
      "longitude": 76.801584
    },
    {
      "city": "Chandigarh",
      "locality": "Manimajra (Chandigarh)",
      "locality_id": "ZWL001934",
      "latitude": 30.722848,
      "longitude": 76.835395
    },
    {
      "city": "Chandigarh",
      "locality": "Industrial Area Phase I (Chandigarh)",
      "locality_id": "ZWL003936",
      "latitude": 30.701381,
      "longitude": 76.808231
    },
    {
      "city": "Chandigarh",
      "locality": "Sector 59 (Chandigarh)",
      "locality_id": "ZWL004716",
      "latitude": 30.725954,
      "longitude": 76.716657
    },
    {
      "city": "Chandigarh",
      "locality": "Sector 20, Panchkula",
      "locality_id": "ZWL002303",
      "latitude": 30.667002,
      "longitude": 76.86017
    },
    {
      "city": "Chandigarh",
      "locality": "Sector 8/9 nd Panchkula",
      "locality_id": "ZWL009521",
      "latitude": 30.694507,
      "longitude": 76.849604
    },
    {
      "city": "Chandigarh",
      "locality": "Sector 28 (Chandigarh)",
      "locality_id": "ZWL006817",
      "latitude": 30.724245,
      "longitude": 76.808833
    },
    {
      "city": "Chandigarh",
      "locality": "Phase 10 Mohali",
      "locality_id": "ZWL003496",
      "latitude": 30.692094,
      "longitude": 76.733846
    },
    {
      "city": "Chandigarh",
      "locality": "Gillco, Chandigarh",
      "locality_id": "ZWL009894",
      "latitude": 30.736526,
      "longitude": 76.654293
    },
    {
      "city": "Chandigarh",
      "locality": "Sector 46 (Chandigarh)",
      "locality_id": "ZWL004101",
      "latitude": 30.70592,
      "longitude": 76.76231
    },
    {
      "city": "Chandigarh",
      "locality": "Sector 70 (Chandigarh)",
      "locality_id": "ZWL003262",
      "latitude": 30.70987,
      "longitude": 76.69205
    },
    {
      "city": "Chandigarh",
      "locality": "VIP Road, Zirakpur",
      "locality_id": "ZWL009430",
      "latitude": 30.656048,
      "longitude": 76.823298
    },
    {
      "city": "Chandigarh",
      "locality": "VR Mall",
      "locality_id": "ZWL004196",
      "latitude": 30.730066,
      "longitude": 76.684242
    },
    {
      "city": "Chandigarh",
      "locality": "Sector 35 (Chandigarh)",
      "locality_id": "ZWL003093",
      "latitude": 30.72729,
      "longitude": 76.756632
    },
    {
      "city": "Chandigarh",
      "locality": "Sector 22 (Chandigarh)",
      "locality_id": "ZWL009406",
      "latitude": 30.735307,
      "longitude": 76.774912
    },
    {
      "city": "Goa",
      "locality": "Verna, Goa",
      "locality_id": "ZWL002150",
      "latitude": 15.38064,
      "longitude": 73.909304
    },
    {
      "city": "Goa",
      "locality": "Mapusa, Goa",
      "locality_id": "ZWL008519",
      "latitude": 15.599556,
      "longitude": 73.791137
    },
    {
      "city": "Goa",
      "locality": "Calangute, Goa",
      "locality_id": "ZWL004452",
      "latitude": 15.532704,
      "longitude": 73.762608
    },
    {
      "city": "Goa",
      "locality": "Majorda, Goa",
      "locality_id": "ZWL006556",
      "latitude": 15.255895,
      "longitude": 73.937616
    },
    {
      "city": "Goa",
      "locality": "Upper panaji, Goa",
      "locality_id": "ZWL002137",
      "latitude": 15.460913,
      "longitude": 73.835391
    },
    {
      "city": "Goa",
      "locality": "Ponda, Goa",
      "locality_id": "ZWL005093",
      "latitude": 15.398953,
      "longitude": 74.002377
    },
    {
      "city": "Goa",
      "locality": "Margao, Goa",
      "locality_id": "ZWL002142",
      "latitude": 15.231363,
      "longitude": 73.997689
    },
    {
      "city": "Goa",
      "locality": "Vasco, Goa",
      "locality_id": "ZWL004621",
      "latitude": 15.387592,
      "longitude": 73.829979
    },
    {
      "city": "Goa",
      "locality": "Morjim, Goa",
      "locality_id": "ZWL006403",
      "latitude": 15.653757,
      "longitude": 73.747022
    },
    {
      "city": "Goa",
      "locality": "Porvorim, Goa",
      "locality_id": "ZWL005568",
      "latitude": 15.535007,
      "longitude": 73.827229
    },
    {
      "city": "Ludhiana",
      "locality": "Sector 32, Ludhiana",
      "locality_id": "ZWL009021",
      "latitude": 30.895881,
      "longitude": 75.90605
    },
    {
      "city": "Ludhiana",
      "locality": "Civil Lines, Ludhiana",
      "locality_id": "ZWL006208",
      "latitude": 30.916548,
      "longitude": 75.818266
    },
    {
      "city": "Ludhiana",
      "locality": "Sarabha Nagar, Ludhiana",
      "locality_id": "ZWL006788",
      "latitude": 30.891869,
      "longitude": 75.834901
    },
    {
      "city": "Ludhiana",
      "locality": "BRS Nagar, Ludhiana",
      "locality_id": "ZWL005256",
      "latitude": 30.897774,
      "longitude": 75.787544
    },
    {
      "city": "Ludhiana",
      "locality": "Model Town, Ludhiana",
      "locality_id": "ZWL001163",
      "latitude": 30.88106,
      "longitude": 75.875309
    },
    {
      "city": "Ludhiana",
      "locality": "Ganesh Nagar, Ludhiana",
      "locality_id": "ZWL003304",
      "latitude": 30.91754,
      "longitude": 75.879759
    },
    {
      "city": "Ludhiana",
      "locality": "Dugri,Ludhiana",
      "locality_id": "ZWL003119",
      "latitude": 30.856247,
      "longitude": 75.843129
    },
    {
      "city": "Guwahati",
      "locality": "Pathar Quarry, Guwahati",
      "locality_id": "ZWL006981",
      "latitude": 26.159879,
      "longitude": 91.827651
    },
    {
      "city": "Guwahati",
      "locality": "Basistha-Lokhra, Guwahati",
      "locality_id": "ZWL006537",
      "latitude": 26.116888,
      "longitude": 91.777488
    },
    {
      "city": "Guwahati",
      "locality": "North Guwahati, Guwahati",
      "locality_id": "ZWL009407",
      "latitude": 26.196471,
      "longitude": 91.684788
    },
    {
      "city": "Guwahati",
      "locality": "Dharapur, Guwahati",
      "locality_id": "ZWL004763",
      "latitude": 26.134004,
      "longitude": 91.623895
    },
    {
      "city": "Guwahati",
      "locality": "Lal Ganesh - Kahilipara, Guwahati",
      "locality_id": "ZWL007095",
      "latitude": 26.145102,
      "longitude": 91.752656
    },
    {
      "city": "Guwahati",
      "locality": "Paltan-Bazar, Guwahati",
      "locality_id": "ZWL002105",
      "latitude": 26.183358,
      "longitude": 91.75248
    },
    {
      "city": "Guwahati",
      "locality": "Azara, Guwahati",
      "locality_id": "ZWL003362",
      "latitude": 26.110966,
      "longitude": 91.602115
    },
    {
      "city": "Guwahati",
      "locality": "Changsari, Guwahati",
      "locality_id": "ZWL002491",
      "latitude": 26.262376,
      "longitude": 91.694879
    },
    {
      "city": "Guwahati",
      "locality": "Maligaon - Jalukbari, Guwahati",
      "locality_id": "ZWL005319",
      "latitude": 26.161285,
      "longitude": 91.689576
    },
    {
      "city": "Guwahati",
      "locality": "Zoo Tiniali - Christian basti",
      "locality_id": "ZWL005708",
      "latitude": 26.177033,
      "longitude": 91.779799
    },
    {
      "city": "Amritsar",
      "locality": "Himatpura, Amritsar",
      "locality_id": "ZWL001780",
      "latitude": 31.608999,
      "longitude": 74.863051
    },
    {
      "city": "Amritsar",
      "locality": "Rasulpur, Amritsar",
      "locality_id": "ZWL008281",
      "latitude": 31.61959,
      "longitude": 74.915049
    },
    {
      "city": "Amritsar",
      "locality": "Ranjit Avenue, Amritsar",
      "locality_id": "ZWL004590",
      "latitude": 31.666773,
      "longitude": 74.8502
    },
    {
      "city": "Amritsar",
      "locality": "White Avenue, Amritsar",
      "locality_id": "ZWL002073",
      "latitude": 31.657377,
      "longitude": 74.889594
    },
    {
      "city": "Amritsar",
      "locality": "Chheharta, Amritsar",
      "locality_id": "ZWL005826",
      "latitude": 31.633049,
      "longitude": 74.817702
    },
    {
      "city": "Amritsar",
      "locality": "Hall Bazar, Amritsar",
      "locality_id": "ZWL007456",
      "latitude": 31.632158,
      "longitude": 74.866838
    },
    {
      "city": "Bhopal",
      "locality": "Ashoka Garden, Bhopal",
      "locality_id": "ZWL008755",
      "latitude": 23.260793,
      "longitude": 77.421525
    },
    {
      "city": "Bhopal",
      "locality": "Shahpura,Bhopal",
      "locality_id": "ZWL009428",
      "latitude": 23.176545,
      "longitude": 77.418255
    },
    {
      "city": "Bhopal",
      "locality": "Airport Area, Bhopal",
      "locality_id": "ZWL006900",
      "latitude": 23.290449,
      "longitude": 77.337426
    },
    {
      "city": "Bhopal",
      "locality": "TT Nagar, Bhopal",
      "locality_id": "ZWL002615",
      "latitude": 23.2236,
      "longitude": 77.392134
    },
    {
      "city": "Bhopal",
      "locality": "BHEL, Bhopal",
      "locality_id": "ZWL003463",
      "latitude": 23.267602,
      "longitude": 77.474332
    },
    {
      "city": "Bhopal",
      "locality": "MP Nagar,Bhopal",
      "locality_id": "ZWL002872",
      "latitude": 23.227641,
      "longitude": 77.44733
    },
    {
      "city": "Bhopal",
      "locality": "Hoshangabad Road, Bhopal",
      "locality_id": "ZWL005836",
      "latitude": 23.168118,
      "longitude": 77.482657
    },
    {
      "city": "Bhopal",
      "locality": "People's Mall, Bhopal",
      "locality_id": "ZWL003417",
      "latitude": 23.293081,
      "longitude": 77.396385
    },
    {
      "city": "Visakhapatnam",
      "locality": "NAD, Vizag",
      "locality_id": "ZWL001466",
      "latitude": 17.749616,
      "longitude": 83.230677
    },
    {
      "city": "Visakhapatnam",
      "locality": "Gajuwaka",
      "locality_id": "ZWL003024",
      "latitude": 17.681004,
      "longitude": 83.207459
    },
    {
      "city": "Visakhapatnam",
      "locality": "Dwaraka Nagar",
      "locality_id": "ZWL004755",
      "latitude": 17.739116,
      "longitude": 83.324672
    },
    {
      "city": "Visakhapatnam",
      "locality": "Madhurawada",
      "locality_id": "ZWL009959",
      "latitude": 17.789823,
      "longitude": 83.373031
    },
    {
      "city": "Bhubaneswar",
      "locality": "Madhusudan Nagar, Bhubaneswar",
      "locality_id": "ZWL007491",
      "latitude": 20.278497,
      "longitude": 85.824922
    },
    {
      "city": "Bhubaneswar",
      "locality": "Kalinga Nagar, Bhubneshwar",
      "locality_id": "ZWL003084",
      "latitude": 20.277934,
      "longitude": 85.773884
    },
    {
      "city": "Bhubaneswar",
      "locality": "Nayapalli, Bhubneshwar",
      "locality_id": "ZWL003270",
      "latitude": 20.299879,
      "longitude": 85.813518
    },
    {
      "city": "Bhubaneswar",
      "locality": "Sahid Nagar, Bhubaneshwar",
      "locality_id": "ZWL007379",
      "latitude": 20.289125,
      "longitude": 85.85668
    },
    {
      "city": "Bhubaneswar",
      "locality": "Lakshmi Sagar, Bhubneshwar",
      "locality_id": "ZWL001823",
      "latitude": 20.266492,
      "longitude": 85.851166
    },
    {
      "city": "Bhubaneswar",
      "locality": "Khandagiri, Bhubneshwar",
      "locality_id": "ZWL004098",
      "latitude": 20.246979,
      "longitude": 85.766384
    },
    {
      "city": "Bhubaneswar",
      "locality": "Jagmohan Nagar, Bhubaneswar",
      "locality_id": "ZWL008906",
      "latitude": 20.257002,
      "longitude": 85.789371
    },
    {
      "city": "Bhubaneswar",
      "locality": "Kharabela Nagar, Bhubaneswar",
      "locality_id": "ZWL002821",
      "latitude": 20.271584,
      "longitude": 85.84094
    },
    {
      "city": "Bhubaneswar",
      "locality": "Chandrasekharpur, Bhubaneswar",
      "locality_id": "ZWL009572",
      "latitude": 20.317124,
      "longitude": 85.806992
    },
    {
      "city": "Bhubaneswar",
      "locality": "Patia, Bhubneshwar",
      "locality_id": "ZWL005652",
      "latitude": 20.363954,
      "longitude": 85.814321
    },
    {
      "city": "Coimbatore",
      "locality": "Gandhipuram, Coimbatore",
      "locality_id": "ZWL003661",
      "latitude": 11.019095,
      "longitude": 76.968472
    },
    {
      "city": "Coimbatore",
      "locality": "Vadavalli",
      "locality_id": "ZWL005742",
      "latitude": 11.02482,
      "longitude": 76.900648
    },
    {
      "city": "Coimbatore",
      "locality": "RS Puram, Coimbatore",
      "locality_id": "ZWL008653",
      "latitude": 11.000355,
      "longitude": 76.941985
    },
    {
      "city": "Coimbatore",
      "locality": "Racecourse, Coimbatore",
      "locality_id": "ZWL002703",
      "latitude": 10.999272,
      "longitude": 76.975662
    },
    {
      "city": "Coimbatore",
      "locality": "Saibaba Colony, Coimbatore",
      "locality_id": "ZWL009668",
      "latitude": 11.032946,
      "longitude": 76.944253
    },
    {
      "city": "Coimbatore",
      "locality": "Peelamedu, Coimbatore",
      "locality_id": "ZWL007527",
      "latitude": 11.026179,
      "longitude": 77.005899
    },
    {
      "city": "Coimbatore",
      "locality": "Podanur, Coimbatore",
      "locality_id": "ZWL005468",
      "latitude": 10.977206,
      "longitude": 76.981702
    },
    {
      "city": "Coimbatore",
      "locality": "Kunniamuthur, Coimbatore",
      "locality_id": "ZWL004408",
      "latitude": 10.937589,
      "longitude": 76.933705
    },
    {
      "city": "Coimbatore",
      "locality": "Ondipudur, Coimbatore",
      "locality_id": "ZWL008265",
      "latitude": 10.99767,
      "longitude": 77.042986
    },
    {
      "city": "Coimbatore",
      "locality": "Koundampalayam",
      "locality_id": "ZWL007600",
      "latitude": 11.068353,
      "longitude": 76.937962
    },
    {
      "city": "Coimbatore",
      "locality": "Saravanampatty",
      "locality_id": "ZWL002147",
      "latitude": 11.070812,
      "longitude": 76.998053
    },
    {
      "city": "Coimbatore",
      "locality": "Ganapathypudur, Coimbatore",
      "locality_id": "ZWL009595",
      "latitude": 11.042698,
      "longitude": 76.984477
    },
    {
      "city": "Coimbatore",
      "locality": "Sitra, and Singanallur, Coimbatore",
      "locality_id": "ZWL001279",
      "latitude": 11.042569,
      "longitude": 77.054996
    },
    {
      "city": "Mangalore",
      "locality": "South Mangalore",
      "locality_id": "ZWL006449",
      "latitude": 12.87903,
      "longitude": 74.854593
    },
    {
      "city": "Mangalore",
      "locality": "Thokkattu, Mangalore",
      "locality_id": "ZWL009478",
      "latitude": 12.82046,
      "longitude": 74.865765
    },
    {
      "city": "Vadodara",
      "locality": "Waghodia",
      "locality_id": "ZWL002354",
      "latitude": 22.300216,
      "longitude": 73.229259
    },
    {
      "city": "Vadodara",
      "locality": "Fatehgunj",
      "locality_id": "ZWL004097",
      "latitude": 22.315398,
      "longitude": 73.199769
    },
    {
      "city": "Vadodara",
      "locality": "Nizampura",
      "locality_id": "ZWL009713",
      "latitude": 22.334731,
      "longitude": 73.176306
    },
    {
      "city": "Vadodara",
      "locality": "Diwalipura",
      "locality_id": "ZWL008938",
      "latitude": 22.302691,
      "longitude": 73.15612
    },
    {
      "city": "Vadodara",
      "locality": "Akota",
      "locality_id": "ZWL004439",
      "latitude": 22.298674,
      "longitude": 73.178672
    },
    {
      "city": "Vadodara",
      "locality": "Manjalpur, Vadodara",
      "locality_id": "ZWL002446",
      "latitude": 22.25707,
      "longitude": 73.19115
    },
    {
      "city": "Vadodara",
      "locality": "Shubhanpura",
      "locality_id": "ZWL008232",
      "latitude": 22.321614,
      "longitude": 73.160014
    },
    {
      "city": "Vadodara",
      "locality": "Alkapuri",
      "locality_id": "ZWL002475",
      "latitude": 22.31314,
      "longitude": 73.17276
    },
    {
      "city": "Nagpur",
      "locality": "Pratap Nagar",
      "locality_id": "ZWL005549",
      "latitude": 21.114916,
      "longitude": 79.051774
    },
    {
      "city": "Nagpur",
      "locality": "Sadar",
      "locality_id": "ZWL001438",
      "latitude": 21.171681,
      "longitude": 79.072065
    },
    {
      "city": "Nagpur",
      "locality": "Kharabi, Nagpur",
      "locality_id": "ZWL006432",
      "latitude": 21.144692,
      "longitude": 79.136306
    },
    {
      "city": "Nagpur",
      "locality": "Hanuman Nagar",
      "locality_id": "ZWL009782",
      "latitude": 21.131152,
      "longitude": 79.100974
    },
    {
      "city": "Nagpur",
      "locality": "Dharampeth",
      "locality_id": "ZWL008282",
      "latitude": 21.131547,
      "longitude": 79.056027
    },
    {
      "city": "Nagpur",
      "locality": "Manish Nagar",
      "locality_id": "ZWL001041",
      "latitude": 21.091663,
      "longitude": 79.072458
    },
    {
      "city": "Nagpur",
      "locality": "Ayodhya Nagar, Nagpur",
      "locality_id": "ZWL007188",
      "latitude": 21.103625,
      "longitude": 79.104888
    },
    {
      "city": "Nagpur",
      "locality": "Gandhibagh",
      "locality_id": "ZWL003633",
      "latitude": 21.146868,
      "longitude": 79.103994
    },
    {
      "city": "Mysore",
      "locality": "Central Mysore",
      "locality_id": "ZWL002458",
      "latitude": 12.326689,
      "longitude": 76.633539
    },
    {
      "city": "Surat",
      "locality": "Udhna, Surat",
      "locality_id": "ZWL005095",
      "latitude": 21.166218,
      "longitude": 72.850231
    },
    {
      "city": "Surat",
      "locality": "City Light, Surat",
      "locality_id": "ZWL002155",
      "latitude": 21.159272,
      "longitude": 72.791465
    },
    {
      "city": "Surat",
      "locality": "Athwa",
      "locality_id": "ZWL007951",
      "latitude": 21.168804,
      "longitude": 72.803931
    },
    {
      "city": "Surat",
      "locality": "Vesu, Surat",
      "locality_id": "ZWL006000",
      "latitude": 21.136777,
      "longitude": 72.762895
    },
    {
      "city": "Surat",
      "locality": "Adajan, Surat",
      "locality_id": "ZWL008198",
      "latitude": 21.211151,
      "longitude": 72.79311
    },
    {
      "city": "Surat",
      "locality": "Varaccha, Surat",
      "locality_id": "ZWL002771",
      "latitude": 21.210937,
      "longitude": 72.857374
    },
    {
      "city": "Surat",
      "locality": "New Textile Market, Surat",
      "locality_id": "ZWL005626",
      "latitude": 21.199018,
      "longitude": 72.828239
    },
    {
      "city": "Surat",
      "locality": "Katargam, Surat",
      "locality_id": "ZWL005423",
      "latitude": 21.231792,
      "longitude": 72.82423
    },
    {
      "city": "Trivandrum",
      "locality": "Kazhakoottam, Thiruvananthapuram",
      "locality_id": "ZWL009343",
      "latitude": 8.57517,
      "longitude": 76.904888
    },
    {
      "city": "Trivandrum",
      "locality": "Tvm Central",
      "locality_id": "ZWL007746",
      "latitude": 8.490977,
      "longitude": 76.96925
    },
    {
      "city": "Trivandrum",
      "locality": "Nemom, Thiruvananthapuram",
      "locality_id": "ZWL002223",
      "latitude": 8.430376,
      "longitude": 77.027424
    },
    {
      "city": "Vijayawada",
      "locality": "Governorpet, Vijayawada",
      "locality_id": "ZWL005308",
      "latitude": 16.520989,
      "longitude": 80.63634
    },
    {
      "city": "Vijayawada",
      "locality": "Gunadala, Vijayawada",
      "locality_id": "ZWL004428",
      "latitude": 16.515748,
      "longitude": 80.690025
    },